"code","Schname", "lat", "long", "Remarks"
"15010100101","MAMIT GOVT. P/S-VII","23.9235220548","92.4922657013","Completed"
"15010100201","MAMIT GOVT. P/S-I","23.9278150395","92.4904417992","Completed"
"15010100202","MAMIT GOVT. P/S-III","23.9312743311","92.4911767244","Completed"
"15010100203","MAMIT GOVT. M/S-I","23.9277733607","92.489964366","Completed"
"15010100204","PRESBYTERIAN ENGKISH MEDIUM SCHOOL, MAMIT VENGHLUN","23.9295385677","92.4892026186","Completed"
"15010100301","N. SABUAL UPS","23.9865442187","92.4890363216","Completed"
"15010100304","N. SABUAL P/S","23.9866593957","92.4889478087","Completed"
"15010100403","SUARHLIAP M/S","24.1350172094","92.5159871578","Completed"
"15010100404","SUARHLIAP P/S","24.1346084358","92.5161105394","Completed"
"15010100405","SUARHLIAP RMSA SECONDARY SCHOOL","24.141559857","92.5158074498","Completed"
"15010100501","BAWNGVA GOVT.  P/S","23.912758319","92.4268171191","Completed"
"15010100502","BAWNGVA UPS","23.9135772772","92.4263611436","Completed"
"15010100601","DARLAK GOVT. P/S","23.9023369917","92.4144119024","Completed"
"15010100602","DARLAK GOVT. M/S","23.9033816144","92.4197334051","Completed"
"15010100603","DARLAK LEILET P/S","23.9020868695","92.4184191227","Completed"
"15010100604","EMMANUEL ENGLISH SCHOOL, DARLAK","23.9028127129","92.4194464087","Completed"
"15010100606","DARLAK RMSA SECONDARY SCHOOL","23.8994850797","92.4193418026","Completed"
"15010100702","MAMIT GOVT. P/S-IV","23.8945584558","92.4975711107","Completed"
"15010100703","MAMIT GOVT. P/S-VI","23.9065056235","92.4924856424","Completed"
"15010100707","AGAPE GOVT. M/S-IV","23.8991442193","92.4964660406","Completed"
"15010100708","NALZAWL P/S","23.8669815929","92.4248617887","Completed"
"15010100709","NALZAWL UPS","23.8681515952","92.425776422","Completed"
"15010100710","NEW MAMIT UPS","23.8790196016","92.4994057417","Completed"
"15010100712","NEW MAMIT RMSA SECONDARY SCHOOL","23.8851313812","92.4978286028","Completed"
"15010100713","ST. FRANCIS OF ASSISI HIGH SCHOOL","23.9116573762","92.4906671047","Completed"
"15010100714","NEW DIAMOND SCHOOL","23.9121428711","92.494070828","Completed"
"15010100715","ST FRANCIS OF ASSISSI M/S MAMIT","23.9116156922","92.4906992912","Completed"
"15010100801","PHAIZAU GOVT. P/S","23.9260326468","92.5223869085","Completed"
"15010100802","PHAIZAU UPS","23.9259762571","92.5225800276","Completed"
"15010100901","K. SARALI P/S","23.9864878555","92.4256557226","Completed"
"15010100902","K. SARALI UPS","23.9862967103","92.4230539799","Completed"
"15010101001","KAWRTHAH GOVT. P/S-I","23.9970837147","92.3740822077","Completed"
"15010101002","KAWRTHAH GOVT. P/S-II","24.0005754523","92.3754930496","Completed"
"15010101003","KAWRTHAH GOVT. P/S-III","24.0055323317","92.3759678006","Completed"
"15010101004","KAWRTHAH GOVT. P/S-IV","23.9919353731","92.3737442493","Completed"
"15010101005","KAWRTHAH GOVT. M/S-I","24.0043366215","92.3765069246","Completed"
"15010101006","KAWRTHAH GOVT. M/S-II","23.9917466865","92.3736476898","Completed"
"15010101007","HALIDAY ENGLISH MEDIUM SCHOOL P/S, KAWRTHAH","24.0008596878","92.3749190569","Completed"
"15010101009","KAWRTHAH GOVT. HIGHER SECONDARY SCHOOL","23.9908890167","92.3731300235","Completed"
"15010101010","KAWRTHAH GOVT. HIGH SCHOOL","23.9915187919","92.3735806346","Completed"
"15010101011","KAWRTHAH HIGH SCHOOL II","24.0049883829","92.3761582375","Completed"
"15010101012","ST.IGNATIUS ENGLISH SCHOOL","24.006267394","92.3761421442","Completed"
"15010101013","PRESBYTERIAN ENGLICH SCHOOL KAWRTHAH","23.9980442583","92.3757612705","Completed"
"15010101101","RENGDIL GOVT. P/S-I","24.068693141","92.3872411251","Completed"
"15010101102","RENGDIL GOVT. P/S-II","24.0736792287","92.3903524876","Completed"
"15010101103","RENGDIL GOVT. M/S-I","24.072347012","92.3886680603","Completed"
"15010101104","RENGDIL GOVT. M/S-II","24.0682621144","92.3868656158","Completed"
"15010101105","STONE QUARRY P/S","24.0256911168","92.3774778843","Completed"
"15010101106","RENGDIL HIGH SCHOOL","24.0672531149","92.3872303963","Completed"
"15010101201","TUIDAM GOVT. P/S","23.9279842061","92.3692595959","Completed"
"15010101202","TUIDAM GOVT. P/S-II","23.9294110814","92.3708474636","Completed"
"15010101203","TUIDAM GOVT. M/S","23.9281705344","92.3690450191","Completed"
"15010101204","NEW EDEN P/S","23.9337700629","92.3130083084","Completed"
"15010101205","TUMPANGLUI P/S","23.9454243447","92.3128902912","Completed"
"15010101206","TUMPANGLUI UPS","23.9451056678","92.3126864433","Completed"
"15010101207","NEW EDEN UPS","23.935005653","92.3135662079","Completed"
"15010101215","LMS TUIDAM","23.9284941565","92.3684978485","Completed"
"15010101221","TUIDAM GOVT. HIGH SCHOOL","23.9272143735","92.3685514927","Completed"
"15010101301","KAWRTETHAWVENG GOVT. P/S-I","23.8686568759","92.373650372","Completed"
"15010101302","KAWRTETHAWVENG GOVT. P/S-II","23.872461135","92.375678122","Completed"
"15010101303","KAWRTETHAWVENG GOVT. P/S-III","23.8700672365","92.3737549782","Completed"
"15010101304","KAWRTETHAWVENG GOVT. M/S-I","23.8682546138","92.3736530542","Completed"
"15010101305","KAWRTETHAWVENG GOVT. M/S-II","23.8758115375","92.3733097315","Completed"
"15010101307","KAWRTETHAWVENG HIGH SCHOOL","23.8680681992","92.377512753","Completed"
"15010101601","THAIDAWR UPS","23.8048802807","92.2979772091","Completed"
"15010101701","W. BUNGHMUN GOVT. P/S","23.8018593459","92.3592281342","Completed"
"15010101702","BUNGHMUNN VENGTHLANG P/S","23.802907233","92.3614168167","Completed"
"15010101703","BUNGHMUN GOVT. M/S","23.8020777587","92.3592469096","Completed"
"15010101704","MUALTHUAM P/S","23.8456498877","92.3257112503","Completed"
"15010101705","MUALTHUAM UPS","23.8457676436","92.3257541656","Completed"
"15010101707","SOTAPA P/S","23.8429880842","92.2877725806","Completed"
"15010101708","SOTAPA UPS","23.8429880842","92.2877725806","Completed"
"15010101710","W. BUNGHMUN HIGH SCHOOL","23.8084189306","92.3627659678","Completed"
"15010101801","SERHMUN GOVT. P/S","23.7582356993","92.3578494787","Completed"
"15010101803","W. SERHMUN GOVT. P/S-II","23.754386357","92.3560845852","Completed"
"15010101804","TAITESENA MEMORIAL GOVT. M/S","23.7538364416","92.3564171791","Completed"
"15010101805","SERHMUN RMSA SECONDARY SCHOOL","23.7527783391","92.3564091325","Completed"
"15010101901","BAWRAI GOVT. P/S","24.1414619523","92.3355549574","Completed"
"15010101902","BAWRAI GOVT. M/S","24.1455347252","92.3392161727","Completed"
"15010101904","BORAI GOVT. HIGH SCHOOL","24.1455322776","92.3392000794","Completed"
"15010102001","ZAWLNUAM GOVT. P/S-III","24.1362337315","92.3349836469","Completed"
"15010102003","ZAWLNUAM GOVT. M/S-I","24.1373107233","92.3349192739","Completed"
"15010102006","BAPTIST ENGLISH P/S, ZAWLNUAM THUAMPUI","24.1389164033","92.3346617818","Completed"
"15010102007","BAPTIST ENGLISH M/S, ZAWLNUAM THUAMPUI","24.1387059037","92.3346336186","Completed"
"15010102101","ZAWLNUAM GOVT. P/S-I","24.1302219924","92.3356474936","Completed"
"15010102102","ZAWLNUAM GOVT. P/S-II","24.1334286148","92.334060967","Completed"
"15010102103","ZAWLNUAM GOVT. M/S-II","24.1280042356","92.3342674971","Completed"
"15010102104","ZAWLNUAM PUBLIC M/S","24.1332572706","92.3299410939","Completed"
"15010102105","ZAWLNUAM PUBLIC P/S","24.1332572706","92.3299410939","Completed"
"15010102106","ZAWLNUAM VENGTHLANG GOVT. P/S","24.1259969611","92.3333247006","Completed"
"15010102108","K.R. HIGH SCHOOL ZAWLNUAM ","24.1334653314","92.33209759","Completed"
"15010102109","ZAWLNUAM HIGHER SECONDARY SCHOOL","24.1378590065","92.3367458582","Completed"
"15010102201","ZAWLPUI GOVT. P/S","24.12368","92.336044","Completed"
"15010102202","ZAWLPUI GOVT. M/S","24.123221","92.335932","Completed"
"15010102401","BUNGTHUAM GOVT. P/S","24.186862109","92.3315048218","Completed"
"15010102402","BUNGTHUAM GOVT. M/S","24.186862109","92.3315048218","Completed"
"15010102403","BUNGTHUAM GOVT. HIGH SCHOOL","24.1848533124","92.3301610351","Completed"
"15010102501","KANHMUN GOVT. P/S-I","23.7243630328","92.7193308677","Completed"
"15010102502","KANHMUN GOVT. P/S-II","24.2392655891","92.2961640358","Completed"
"15010102503","KANHMUN GOVT. M/S","24.2387201873","92.2961962223","Completed"
"15010102505","KANHMUN GOVERNMENT HIGH SCHOOL","24.2390968328","92.2962364554","Completed"
"15010102506","ST. FRANCIS XAVIER HIGH SCHOOL KANHMUN","24.2413224421","92.302005887","Completed"
"15010102601","LUIMAWI GOVT. P/S","24.2199329707","92.3120507598","Completed"
"15010102602","LUIMAWI UPS","24.2271170053","92.3212869465","Completed"
"15010102603","LUIMAWI VAIVENG P/S","24.2275890778","92.3212319613","Completed"
"15010102701","THINGHLUN GOVT. P/S","24.2474341076","92.3791891336","Completed"
"15010102702","THINGHLUN GOVT. M/S","24.2473949782","92.3792427778","Completed"
"15010102704","THINGHLUN HIGH SCHOOL","24.2502122626","92.3782503605","Completed"
"15010102705","BAZIRUNG P/S","24.2386688265","92.3790067434","Completed"
"15010102801","CHUHVEL GOVT. P/S","24.1240777815","92.4699497223","Completed"
"15010102802","CHUHVEL GOVT. M/S","24.1241463241","92.4696439505","Completed"
"15010102803","CHUHVEL LEILET P/S","24.1154607018","92.4770951271","Completed"
"15010102901","HRIPHAW GOVT. P/S-I","24.1974463054","92.4195858836","Completed"
"15010102902","HRIPHAW GOVT. M/S","24.2028873071","92.4205112457","Completed"
"15010102903","HRIPHAW P/S II","24.1923965348","92.41784513","Completed"
"15010102904","HRIPHAW HIGH SCHOOL","24.2028970929","92.420527339","Completed"
"15010103001","KANANTHAR P/S","24.1033958155","92.4612486362","Completed"
"15010103002","KANANTHAR UPS","24.1036994102","92.4609160423","Completed"
"15010103101","SAIKHAWTHLIR GOVT. P/S","24.1479235027","92.4851042032","Completed"
"15010103102","R.M. SAIKHAWTHLIR GOVT. M/S","24.1482514667","92.4854636192","Completed"
"15010103103","SAIKHAWTHLIR  LEILET P/S","24.1484472656","92.4942612648","Completed"
"15010103201","ZAMUANG GOVT. P/S-I","24.0969516037","92.3979485035","Completed"
"15010103202","ZAMUANG GOVT. P/S-II","24.1053153052","92.3969078064","Completed"
"15010103203","ZAMUANG GOVT. M/S","24.0993314947","92.3975729942","Completed"
"15010103204","PRESBYTERIAN ENGLISH SCHOOL P/S, ZAMUANG","24.1004087971","92.3982596397","Completed"
"15010103207","ZAMUANG GOVT.  HIGH SCHOOL","24.0990278897","92.3976051807","Completed"
"15010103208","ST IGNATIUS ENGLISH SCHOOL ZAMUANG","24.1015301619","92.397197485","Completed"
"15010103301","MAMIT GOVT. P/S-V","23.9429190326","92.4900341034","Completed"
"15010103302","MAMIT GOVT. M/S-III","23.9432769373","92.4913966656","Completed"
"15010103303","VAWNGAWNZO UPS","24.0416532205","92.5070661306","Completed"
"15010103305","VAWNGAWNZO P/S","24.0422460044","92.5082623959","Completed"
"15010103306","CHILUI UPS","23.9974708734","92.4724602699","Completed"
"15010103307","TLANGKHANG GOVT. P/S","24.0452833669","92.5551393628","Completed"
"15010103308","CHILUI P/S","23.9975002778","92.4723878503","Completed"
"15010103309","DAMDIAI UPS","24.0845421551","92.5076535344","Completed"
"15010103310","DAMDIAI P/S","24.0849878191","92.5071385503","Completed"
"15010103311","MAMIT HIGH SCHOOL-II","23.9331694246","92.4893662333","Completed"
"15010103801","HMUNTHATLANG P/S","24.0791352951","92.3896980286","Completed"
"15010103802","HMUNTHATLANG UPS","24.0790079568","92.3897194862","Completed"
"15010104301","MAMIT GOVT. P/S II","23.9196678088","92.4919492006","Completed"
"15010104302","MAMIT GOVT. M/S II","23.9181378471","92.4912518263","Completed"
"15010104303","HMUNSAM PUBLIC P/S","23.9237329072","92.490913868","Completed"
"15010104304","HMUNSAM PUBLIC UPS","23.9237329072","92.490913868","Completed"
"15010104305","MAMIT GOVT. HIGHER SECONDARY SCHOOL","23.9194814682","92.4922174215","Completed"
"15010104306","MAMIT GOVT. HIGH SCHOOL","23.9191014308","92.4922683835","Completed"
"15010105501","SIHTHIANG UPS","24.0536112502","92.4465233088","Completed"
"15010105502","SYNOD HOME MISSION SCHOOL SIHTHIANG","24.0519310207","92.4498975277","Completed"
"15010105601","RAJIV GANDHI MEMORIAL SCHOOL P/S, KOLALIAN","24.2402585568","92.420707047","Completed"
"15010105602","RAJIV GANDHI MEMORIAL SCHOOL M/S, KOLALIAN","24.2465536937","92.4212166667","Completed"
"15010200101","UGUDUASURY P/S","23.392615","92.361172","Completed"
"15010200102","HNAHVA UPS","23.35755","92.397587","Completed"
"15010200103","HNAHVA GOVT. P/S","23.357276","92.394611","Completed"
"15010200201","LOKHISURI DOR P/S","23.358408","92.398038","Completed"
"15010200202","SILSURY GOVT. P/S","23.381884","92.366986","Completed"
"15010200203","SILSURY GOVT. M/S","23.383519044","92.3656305671","Completed"
"15010200204","LOKHISURY P/S","23.385814","92.377813","Completed"
"15010200301","PUKZING VENGTHAR UPS","23.318482","92.44724","Completed"
"15010200302","PUKZING VENGTHAR GOVT. P/S","23.316514","92.448091","Completed"
"15010200401","PUKZING GOVT. P/S","23.3456444424","92.4280187488","Completed"
"15010200402","PUKZING GOVT. M/S","23.3454646711","92.4280536175","Completed"
"15010200403","PUKZING RMSA SECONDARY SCHOOL","23.3452233338","92.4282065034","Completed"
"15010200501","CHHIPPUI GOVT. P/S-I","23.6384183088","92.4783664942","Completed"
"15010200502","CHHIPPUI GOVT. P/S-II","23.6372462403","92.478197515","Completed"
"15010200503","CHHIPPUI UPS","23.6567302098","92.4787688255","Completed"
"15010200504","T.M. CHHIPPUI M/S","23.6481900527","92.4793884158","Completed"
"15010200506","CHHIPPUI HIGH SCHOOL","23.6481900527","92.4793884158","Completed"
"15010200601","LALLEN GOVT. P/S","23.6208558386","92.4624019861","Completed"
"15010200602","LALLEN GOVT. M/S","23.6224875987","92.4608382583","Completed"
"15010200604","LALLEN GOVT. HIGH SCHOOL","23.6224507369","92.4608302116","Completed"
"15010200701","PARVATUI GOVT. P/S","23.497841","92.487998","Completed"
"15010200702","PARVATUI GOVT. M/S","23.497584","92.48764","Completed"
"15010200801","PHULDUNGSEI GOVT. P/S-I","23.4872874864","92.4199855328","Completed"
"15010200802","PHULDUNGSEI GOVT. P/S-II","23.473571","92.420209","Completed"
"15010200803","PHULDUNGSEI GOVT. P/S-III","23.479622","92.424956","Completed"
"15010200804","PHULBIAL GOVT. P/S","23.507893162","92.4202698469","Completed"
"15010200805","PHULDUNGSEI GOVT. M/S","23.4869258682","92.4202698469","Completed"
"15010200806","L.M. PHULDUNGSEI M/S","23.47315","92.419803","Completed"
"15010200808","PHULDUNGSEI GOVT. HIGH SCHOOL","23.4869209483","92.4205058813","Completed"
"15010200901","SAITHAH GOVT. P/S","23.5830886792","92.4467593431","Completed"
"15010200902","SAITHAH GOVT. M/S","23.583435284","92.4431625009","Completed"
"15010200903","SAITHAH RMSA SECONDARY SCHOOL","23.5831870069","92.4485617876","Completed"
"15010201001","W. PHULPUI GOVT. P/S","23.412679691","92.4321386218","Completed"
"15010201002","W. PHULPUI UPS","23.41192","92.431067","Completed"
"15010201003","W. PHULPUI RMSA SECONDARY SCHOOL","23.4121431104","92.4328574538","Completed"
"15010201101","ANDERMANIK GOVT. P/S","23.7383789427","92.3006165028","Completed"
"15010201102","ANDERMANIK UPS","23.7384133166","92.3007237911","Completed"
"15010201103","DHANPARA P/S","23.7390762392","92.3047015071","Completed"
"15010201104","PONSURY P/S","23.7394641701","92.3031431437","Completed"
"15010201105","ZOMUANTLANG UPS","23.774505","92.265871","Completed"
"15010201201","BELKHAI GOVT. P/S","23.7307354451","92.3214197159","Completed"
"15010201202","BELKHAI UPS","23.730574","92.321524","Completed"
"15010201301","KHANTLANG UPS","23.747106","92.268925","Completed"
"15010201303","KHANTLANG GOVT. P/S","23.747088","92.268883","Completed"
"15010201501","TUIPUIBARI GOVT. P/S-I","23.710888","92.328364","Completed"
"15010201502","TUIPUIBARI GOVT. P/S-II","23.706913","92.326381","Completed"
"15010201503","SIDON UPS","23.707881","92.33202","Completed"
"15010201504","ZONUAM P/S","23.7182662272","92.3302334547","Completed"
"15010201505","PERSANG P/S","23.702499","92.325793","Completed"
"15010201506","TUIPUIBARI UPS","23.706991","92.326338","Completed"
"15010201507","SIDON P/S","23.705177","92.332629","Completed"
"15010201601","TUIPUIBARI GOVT. M/S-I","23.717772","92.300468","Completed"
"15010201602","TUIPUIBARI GOVT. P/S-III","23.718517","92.302949","Completed"
"15010201603","TUIPUIBARI GOVT. P/S-IV","23.71775","92.300488","Completed"
"15010201604","BODOLSURY P/S","23.713268","92.294435","Completed"
"15010201605","BORACHERRA P/S","23.718295","92.308729","Completed"
"15010201607","UGUDASURY P/S","23.711632","92.297188","Completed"
"15010201608","RAJIV NAGAR RMSA SECONDARY SCHOOL","23.7195603507","92.3007130623","Completed"
"15010201702","TEIREI FOREST UPS","23.688803","92.454579","Completed"
"15010201703","TEIREI GOVT PS","23.688827","92.455076","Completed"
"15010201704","KATHOIHMO ENGLISH SCHOOL","23.688135","92.455457","Completed"
"15010201801","W. PHAILENG GOVT. P/S-I","23.70035","92.489486","Completed"
"15010201802","W. PHAILENG GOVT. P/S-II","23.698423","92.48763","Completed"
"15010201803","W. PHAILENG GOVT. P/S-III","23.709813","92.477821","Completed"
"15010201804","W. PHAILENG GOVT. P/S-IV","23.68738","92.488034","Completed"
"15010201805","W. PHAILENG GOVT. P/S-V","23.7081657286","92.4821993709","Completed"
"15010201806","W. PHAILENG GOVT. M/S-I","23.700642","92.489606","Completed"
"15010201807","CHHIMVENG PRESBYTERIAN SCHOOL, W.PHAILENG","23.696688","92.488832","Completed"
"15010201808","W. PHAILENG HIGHER SECONDARY SCHOOL","23.697457806","92.4879580736","Completed"
"15010201809","GOSPEL CENTENARY HIGH SCHOOL, W. PHAILENG","23.7080085544","92.4823763967","Completed"
"15010201810","W.PHAILENG GOVT. HIGH SCHOOL","23.6976469214","92.4916997552","Completed"
"15010201811","ADVENTIST ENGLISH SCHOOL","23.708853","92.48481","Completed"
"15010202001","DAMPARENGPUI GOVT. M/S","23.715928423","92.413084209","Completed"
"15010202002","DAMPA ZODIN VENG P/S","23.712421","92.410278","Completed"
"15010202003","BCM COMPREHENSIVE SCHOOL, DAMPARENGPUI","23.721604","92.419722","Completed"
"15010202004","SYNOD HOME MISSION SCHOOL, DAMPARENGPUI","23.718606","92.41141","Completed"
"15010202006","DAMPARENGPUI BCM HIGH SCHOOL","23.7216770868","92.4197602272","Completed"
"15010202007","DAMPARENGPUI P/S","23.720219","92.411736","Completed"
"15010202008","UAINSOUHMO ENGLISH SCHOOL","23.721296","92.41743","Completed"
"15010202101","TUIRUM GOVT. P/S","23.758896","92.446887","Completed"
"15010202102","TUITUM UPS","23.759518","92.446621","Completed"
"15010202201","KHAWHNAI P/S, KHAWHNAI","23.736376","92.438238","Completed"
"15010202202","KHAWHNAI GOVT. M/S","23.73621","92.438519","Completed"
"15010202203","SALEM BOARDING SCHOOL, KHAWHNAI","23.7099805853","92.4396568537","Completed"
"15010202701","W.PHAILENG GOVT. MS-II","23.710022","92.477773","Completed"
"15010202703","PRESBYTERIAN ENGLISH MEDIUM SCHOOL, W.PHAILENG","23.711458","92.48621","Completed"
"15010202705","W. PHAILENG UPS","23.687162","92.488008","Completed"
"15010202706","BETHLEHEM UPGRADED P/S, W.PHAILENG","23.711126","92.47379","Completed"
"15010203401","ZOPUI GOVT. P/S","23.42782","92.510633","Completed"
"15010203501","KASHMIR VENG UPGRADED P/S, MARPARA","23.265763","92.403063","Completed"
"15010203502","MIZO VENG PRIMARY SCHOOL, MARPARA","23.266174","92.417452","Completed"
"15010203503","MIZO VENG UPS, MARPARA","23.265533","92.419423","Completed"
"15010203505","BCM COMPREHENSIVE SCHOOL, MARPARA","23.258898","92.41337","Completed"
"15010203506","MARPARA \'S\' GOVT. P/S","23.2639391826","92.4089831114","Completed"
"15010203507","PURANA BAZAR GOVT. P/S","23.262281","92.405195","Completed"
"15010203508","NEHRU MEMORIAL GOVT. M/S, MARPARA","23.260364","92.409497","Completed"
"15010203509","TAPARACHHORA GOVT. P/S","23.272791","92.403619","Completed"
"15010203510","MARPARA GOVT. P/S-I","23.2639391826","92.4089831114","Completed"
"15010203511","DAMPUI VENG GOVT. P/S","23.249073","92.413286","Completed"
"15010203512","TARABONIA GOVT. P/S","23.244073","92.404132","Completed"
"15010203513","PRESBYTERIAN MISSION SCHOOL, MARPARA","23.26808","92.407757","Completed"
"15010203514","MARPARA GOVT. HIGH SCHOOL","23.2671622288","92.4106326699","Completed"
"15010203515","BEKKABEKYA P/S","23.306935","92.393719","Completed"
"15010203601","SYNOD HOME MISSION SCHOOL, HRUIDUK","23.29485","92.433459","Completed"
"15010203602","HRUIDUK UPS","23.2951610091","92.4370497465","Completed"
"15010203603","HRUIDUK GOVT. P/S","23.294166","92.434813","Completed"
"15010300101","LENGTE GOVT. P/S","23.7718744167","92.599516511","Completed"
"15010300102","LENGTE GOVT. M/S","23.7721149716","92.5995379686","Completed"
"15010300201","HMUNPUI GOVT. P/S-I","23.864312869","92.5829780102","Completed"
"15010300202","HMUNPUI GOVT. P/S-II","23.8573807978","92.5798720121","Completed"
"15010300203","HMUNPUI GOVT. M/S","23.8589409141","92.580011487","Completed"
"15010300207","HMUNPUI HIGH SCHOOL","23.856743009","92.5797995925","Completed"
"15010300301","NGHALCHAWM GOVT. P/S","23.77236289","92.6253354549","Completed"
"15010300302","NGHALCHAWM UPS","23.7721247902","92.6286292076","Completed"
"15010300303","NGHALCHAWM RMSA SECONDARY SCHOOL","23.7735632009","92.625362277","Completed"
"15010300401","SAITLAW GOVT. P/S","23.970401263","92.5757038593","Completed"
"15010300402","SAITLAW UPS","23.9716021902","92.5756663084","Completed"
"15010300501","W. SERZAWL GOVT. P/S","23.9041932755","92.6320973039","Completed"
"15010300502","W. SERZAWL GOVT. M/S","23.9005395343","92.6299676299","Completed"
"15010300601","DAMPUI GOVT. P/S","23.8173215705","92.492839694","Completed"
"15010300602","DAMPUI GOVT. M/S","23.8170860068","92.4931615591","Completed"
"15010300604","DAMPUI HIGH SCHOOL","23.814654278","92.4938723445","Completed"
"15010300701","DAPCHHUAH GOVT. P/S","23.76992296","92.5196751952","Completed"
"15010300702","DAPCHHUAH GOVT. M/S","23.7688502601","92.520428896","Completed"
"15010300703","BCM P/S, DAPCHHUAH","23.7690564548","92.5202947855","Completed"
"15010300704","DILZAWL P/S","23.8323133353","92.5287276506","Completed"
"15010300705","DILZAWL UPS","23.8323133353","92.5287276506","Completed"
"15010300706","S.A. COMPREHENSIVE SCHOOL, DILZAWL","23.8331524303","92.5272631645","Completed"
"15010300707","DAPCHHUAH RMSA SECONDARY SCHOOL","23.770946558","92.5187310576","Completed"
"15010300801","TUAHZAWL GOVT. P/S","23.7693510181","92.5611501932","Completed"
"15010300802","TUAHZAWL GOVT. M/S","23.7660322326","92.5602811575","Completed"
"15010300901","RAWPUICHHIP GOVT. P/S-I","23.7844121345","92.5584518909","Completed"
"15010300902","RAWPUICHHIP GOVT. P/S-II","23.7795866799","92.5588944554","Completed"
"15010300903","RAWPUICHHIP GOVT. P/S-III","23.7887220025","92.559235096","Completed"
"15010300904","RAWPUICHHIP GOVT. M/S","23.7841421494","92.5588542223","Completed"
"15010300906","RAWPUICHHIP HIGH SCHOOL","23.7843507743","92.5603321195","Completed"
"15010400101","REIEK P/S I","23.6978900694","92.6062837243","Completed"
"15010400102","REIEK P/S II","23.6958122446","92.6104277372","Completed"
"15010400103","REIEK M/S I","23.6981626894","92.6063132286","Completed"
"15010400106","NAZARETH ENGLISH ACADEMY, REIEK","23.6975756962","92.6073271036","Completed"
"15010400107","R.M. ENGLISH MEDIUM SCHOOL, REIEK","23.6985089896","92.6083946228","Completed"
"15010400109","REIEK GOVERNMENT HIGH SCHOOL","23.6963746851","92.6063159108","Completed"
"15010400201","AILAWNG P/S","23.6913666691","92.6184207201","Completed"
"15010400202","AILAWNG M/S","23.6915729864","92.6186674833","Completed"
"15010400203","AILAWNG HIGH SCHOOL","23.6893403206","92.618702352","Completed"
"15010400301","BAWNGTHAH P/S","23.4946869107","92.6081559062","Completed"
"15010400302","BAWNGTHAH M/S","23.494777925","92.6067584753","Completed"
"15010400401","BAWLTE P/S","23.4797867817","92.5872185826","Completed"
"15010400402","BAWLTE M/S","23.4811250824","92.5874519348","Completed"
"15010400501","CHUNGTLANG P/S","23.6901238458","92.5706452131","Completed"
"15010400502","CHUNGTLANG M/S","23.6935354411","92.5704494119","Completed"
"15010400601","DARLUNG P/S","23.4597672343","92.6004445553","Completed"
"15010400602","DARLUNG M/S","23.4597623133","92.5977677107","Completed"
"15010400606","DARLUNG GOVT. HIGH SCHOOL","23.4588027159","92.5990739465","Completed"
"15010400701","HREICHUK P/S","23.5964753166","92.5984865427","Completed"
"15010400704","HREICHUK M/S","23.5989897676","92.6000529528","Completed"
"15010400801","KANGHMUN P/S I","23.554929515","92.5755536556","Completed"
"15010400802","KANGHMUN P/S II","23.5630627101","92.5775814056","Completed"
"15010400803","KANGHMUN M/S","23.554555789","92.5755858421","Completed"
"15010400804","KANGHMUN PRESBYTERIAN ENGLISH SCHOOL","23.5554999369","92.5753819942","Completed"
"15010400806","KANGHMUN GOVT. HIGH SCHOOL","23.5629938702","92.5772595406","Completed"
"15010400901","KHAWRIHNIM P/S","23.6255790403","92.6232165098","Completed"
"15010400902","KHAWRIHNIM M/S","23.6247189486","92.6227471232","Completed"
"15010400904","KHAWRIHNIM GOVT. HIGH SCHOOL","23.6264342116","92.6239997149","Completed"
"15010401001","LUNGPHUN P/S","23.5910087387","92.6052993536","Completed"
"15010401002","LUNGPHUN M/S","23.5909890744","92.6051545143","Completed"
"15010401003","LUNGPHUN RMSA SECONDARY SCHOOL","23.5904851741","92.6039582491","Completed"
"15010401101","S.SABUAL P/S","23.4529564024","92.5992321968","Completed"
"15010401102","S.SABUAL M/S","23.4510617082","92.598041296","Completed"
"15010401103","ST. MATHEW\'S ENGLISH SCHOOL, DARLUNG","23.4559730931","92.6010507345","Completed"
"15010401201","RULPUIHLIM P/S","23.7070360351","92.5605922937","Completed"
"15010401202","RULPUIHLIM M/S","23.707271798","92.5609087944","Completed"
"15010401203","RULPUIHLIM HIGH SCHOOL","23.7112968931","92.5619387627","Completed"
"15010401301","W.LUNGDAR P/S","23.6396419667","92.5958257914","Completed"
"15010401302","W.LUNGDAR M/S","23.6424406111","92.5951337814","Completed"
"15010401305","W. LUNGDAR HIGH SCHOOL","23.640207106","92.5953993201","Completed"
"15020100101","GOVT.KHIANGA M/S KOLASIB","24.2344645056","92.6768419147","Completed"
"15020100102","GOVT.M/S KOLASIB","24.2339117457","92.6758977771","Completed"
"15020100103","GOVT.D.S.GORKHA M/S","24.2333051746","92.6771718264","Completed"
"15020100104","GOVT. P/S - XIII","24.2371695704","92.6754042506","Completed"
"15020100105","GOVT. P/S - I","24.2338995165","92.6758655906","Completed"
"15020100106","GOVT. P/S - VII","24.2334788303","92.6770833135","Completed"
"15020100109","BRIGHTER FAITH ACD. KLB(P)","24.231332","92.679279","Completed"
"15020100110","SPRING FIELD ENG MED","24.234171","92.677426","Completed"
"15020100112","CHAWNGHMINGLIANI MEMORIAL HIGH SCHOOL","24.22270194","92.6760721207","Completed"
"15020100113","HMARVENG NEW SECONDARY SCHOOL","24.23401692","92.6766461134","Completed"
"15020100201","GOVT.VENGLAI M/S KOLASIB","24.2262022069","92.6761525869","Completed"
"15020100202","GOVT. P/S - III KOLASIB","24.2298075506","92.6772415638","Completed"
"15020100203","GOVT. P/S - XIV KOLASIB","24.2282763927","92.6793819666","Completed"
"15020100204","ST,MARIA P/S (PVT) KOLASIB","24.2278410122","92.6748222113","Completed"
"15020100205","ST.MARIA M/S (DEF) KOLASIB","24.2276551189","92.6746639609","Completed"
"15020100213","COSMOPOLITAN P/S (P) KOLASIB","24.2243848206","92.6767963171","Completed"
"15020100215","COSMOPOLITAN P/S (PVT) KLB","24.224826","92.676669","Completed"
"15020100217","C.ZAKHUMA HIGHER SECONDARY SCHOOL","24.229379","92.681374","Completed"
"15020100218","ST.JOHNS HIGHER SECONDARY SCHOOL","24.23034321","92.675409615","Completed"
"15020100219","ST.JOHNS HIGH SCHOOL","24.2299005","92.6752647758","Completed"
"15020100301","GOVT. P/S - II KOLASIB","24.2230859728","92.6779282093","Completed"
"15020100302","GOVT. P/S - VI KOLASIB","24.2183992479","92.6774266362","Completed"
"15020100305","GOVT. DIAKKAWN M/S - II KOLASI","24.2228707199","92.6779899001","Completed"
"15020100306","PRESBYTERIAN ENG. P/S (P) KLB","24.2247659928","92.6780427844","Completed"
"15020100307","PRESBYTERIAN ENG. M/S","24.2248544572","92.6781883836","Completed"
"15020100401","GOVT. P/S - VIII KOLASIB","24.2156546452","92.6786014438","Completed"
"15020100402","GOVT. DIAKKAWN M/S KOLASIB","24.2190939508","92.6796770096","Completed"
"15020100403","INTEGRATED P/S (P) KOLASIB","24.2150202633","92.6755663454","Completed"
"15020100404","VENGTHAR M/S KOLASIB","24.2094240309","92.6753532887","Completed"
"15020100406","SUSANNE DOWN P/S (PVT) KLB","24.203432","92.686879","Completed"
"15020100407","SUSANE DOWN M/S (PVT) KLB","24.203432","92.686879","Completed"
"15020100408","SHALOM UP/S KOLASIB","24.2080320695","92.6848644018","Completed"
"15020100409","INTEGRATED M/S KOLASIB","24.2150202633","92.6755663454","Completed"
"15020100410","SHALOM PS","24.2077605252","92.6851218939","Completed"
"15020100412","DIAKKAWN GOVT HIGH SCHOOL","24.219575","92.682016","Completed"
"15020100413","SUSANNE DOWNS BOARDING  SCHOOL","24.20343531","92.6868921518","Completed"
"15020100414","KOLASIB VENGTHAR NEW SECONDARY SCHOOL","24.20767246","92.6769518852","Completed"
"15020100501","GOVT. P/S - X KOLASIB","24.2433303486","92.6774400473","Completed"
"15020100503","GOVT. CHAWNGFIANGA M/S KOLASIB","24.2456537088","92.6763403416","Completed"
"15020100504","KOLASIB TUITHAVENG P/S","24.242352079","92.6814392209","Completed"
"15020100505","KOLASIB TUITHAVENG M/S","24.2420757165","92.6821982861","Completed"
"15020100601","GOVT. P/S - IV","24.221703945","92.6804977655","Completed"
"15020100602","HOLY HEART ACD. P/S (P) KLB","24.220052","92.680782","Completed"
"15020100603","HOLY HEART ACD. M/S (P) KLB","24.220052","92.680782","Completed"
"15020100605","KOLASIB GOVT HIGH SCHOOL","24.22185071","92.6705253124","Completed"
"15020100702","CHAWNGLIANI M/S (AIDED) K","24.2328477984","92.6737949252","Completed"
"15020100703","GOVT. P/S - V KOLASIB","24.2311699233","92.6744252443","Completed"
"15020100706","H.T. HIGH SCHOOL","24.22992251","92.6740711927","Completed"
"15020100801","GOVT. BUILUM P/S","24.242936596","92.6930344105","Completed"
"15020100901","GOVT. P/S MEIDUM","24.1784107586","92.5758299232","Completed"
"15020100902","GOVT. P/S ZODIN","24.1452344475","92.571680411","Completed"
"15020100903","GOVT. MEIDUM M/S ","24.1784621437","92.5759935379","Completed"
"15020100904","ZODIN M/S","24.14510228","92.5717233264","Completed"
"15020100905","MEIDUM NEW SECONDARY SCHOOL","24.18012358","92.578933239","Completed"
"15020101001","GOVT. P/S - I BAIRABI","24.1871702544","92.5372276356","Completed"
"15020101002","GOVT. P/S - II BAIRABI","24.1820969569","92.537396411","Completed"
"15020101003","GOVT. P/S - III BAIRABI","24.1848365743","92.5339773644","Completed"
"15020101005","GOVT. P/S - V BAIRABI","24.1911652333","92.538889589","Completed"
"15020101006","GOVT M/S - I BAIRABI","24.1874051272","92.5336583178","Completed"
"15020101007","GOVT. M/S - II BAIRABI","24.1845435532","92.5328630933","Completed"
"15020101008","R.M. ENG. MED. P/S (P) BAIRABI","24.186824","92.536377","Completed"
"15020101009","R.M. ENG. MED. M/S (P) BAIRABI","24.186824","92.536377","Completed"
"15020101012","LENHMUIKAWN P/S (EGS)","24.1805529782","92.5409892798","Completed"
"15020101013","ZOPHAI P/S (EGS)","24.2468558705","92.5512524024","Completed"
"15020101014","ZOPHAI M/S","24.2470013264","92.5515360466","Completed"
"15020101015","RAIL STATION M/S","24.2006754281","92.5406187755","Completed"
"15020101016","GREEN HILLS KIDS CARE SCHOOL","24.188666","92.537836","Completed"
"15020101017","ST.VINCENT\'S SCHOOL","24.182315","92.538933","Completed"
"15020101019","BAIRABI GOVT HIGH SCHOOL","24.184311","92.538689","Completed"
"15020101101","GOVT. P/S PANGBALKAWN","24.208387017","92.6067653178","Completed"
"15020101102","PANGBALKAWN M/S (AIDED)","24.2064828927","92.6098947755","Completed"
"15020101104","S.CHHIMLUANG P/S","24.236361","92.591412","Completed"
"15020101105","S CHHIMLUANG M/S","24.2344177833","92.5904359534","Completed"
"15020101108","JEHOVA JIRE P/S PANGBALKAWN","24.2074","92.606463","Completed"
"15020101201","GOVT. P/S - XII KOLASIB","24.2443012738","92.6856985688","Completed"
"15020101202","TS LUAIA M/S","24.244355078","92.6887831092","Completed"
"15020101203","RENGTEKAWNPUI P/S","24.2491557883","92.6938417554","Completed"
"15020101205","RENGTEKAWN HIGH SCHOOL","24.243947","92.689495","Completed"
"15020101209","K/M. THANGA ENG. MED SCHOOL","24.242234","92.689402","Completed"
"15020101301","GOVT. P/S - IX KOLASIB","24.2191326816","92.6764334586","Completed"
"15020101302","GOVT. SELLUAII M/S KOLASIB","24.2189471829","92.6763564348","Completed"
"15020103801","GOVT. P/S - XI","24.2206761799","92.6724691537","Completed"
"15020200101","GOVT. P/S - III KAWNPUI","24.0341197724","92.6696578687","Completed"
"15020200103","GOVT. P/S - V KAWNPUI","24.0362610467","92.6729923178","Completed"
"15020200104","GOVT. M/S - I KAWNPUI","24.0412259542","92.672535962","Completed"
"15020200106","MUALVUM M/S (AIDED)","24.0201894499","92.668542038","Completed"
"15020200107","ST. THOMAS P/S KAWNPUI (PVT)","24.04091","92.674398","Completed"
"15020200108","ST. THOMAS M/S KAWNPUI (PVT)","24.04091","92.674398","Completed"
"15020200110","1 IR BAT. ENG. MED M/S (P) MVM","24.0223976859","92.6682653726","Completed"
"15020200111","PRESBY. ENG. MED P/S KNP (PVT)","24.04163","92.672707","Completed"
"15020200112","PRESBY. ENG MED M/S KNP (PVT)","24.04163","92.672707","Completed"
"15020200113","KANAAN M/S","24.0105722993","92.677651411","Completed"
"15020200115","CHANDMARI M/S","24.0339311477","92.6696444577","Completed"
"15020200116","KANAAN P/S","24.0104130415","92.6776138601","Completed"
"15020200117","KAWNPUI P/S-IV","24.040884156","92.6723073644","Completed"
"15020200119","NEW HIGH SCHOOL KAWNPUI","24.03516671","92.6734972","Completed"
"15020200120","KAWNPUI HIGHER SECONDARY SCHOOL","24.05121826","92.6728829741","Completed"
"15020200121","GREEN HILLS HIGH SCHOOL KAWNPUI","24.03400557","92.669699192","Completed"
"15020200201","GOVT. P/S - I KAWNPUI","24.0480216845","92.6728486822","Completed"
"15020200202","GOVT. P/S - II KAWNPUI","24.0426015505","92.6729491399","Completed"
"15020200204","GOVT. M/S-III KAWNPUI","24.0516371894","92.6731365976","Completed"
"15020200205","GOVT. M/S-II KAWNPUI","24.0444570226","92.6737890466","Completed"
"15020200206","LITTLE ENGLAND P/S (PVT) KNP","24.043863","92.67234","Completed"
"15020200209","ZOTLANG P/S","24.068881796","92.6818496822","Completed"
"15020200210","ZOTLANG UPS","24.068763102","92.681782589","Completed"
"15020200212","KAWNPUI GOVT HIGH SCHOOL","24.04932001","92.6722204685","Completed"
"15020200301","GOVT. P/S - I THINGDAWL","24.1760142348","92.6953726908","Completed"
"15020200302","GOVT. P/S - II THINGDAWL","24.1754681894","92.6947263644","Completed"
"15020200303","GOVT. P/S - III THINGDAWL","24.1818330648","92.6963941313","Completed"
"15020200304","GOVT. P/S - V THINGDAWL","24.1587156039","92.6937484577","Completed"
"15020200305","GOVT. M/S THINGDAWL","24.1756435757","92.6929714491","Completed"
"15020200306","VENGTHAR GOVT. M/S THINGDAWL","24.1650287887","92.6949476822","Completed"
"15020200308","GOVT.P/S IV THINGDAWL","24.1675790817","92.6966713644","Completed"
"15020200309","PRESBYTERIAN ENG. MED. P/S","24.175858","92.693976","Completed"
"15020200310","PRESBYTERIAN ENG. MED. M/S","24.2248740254","92.6781749725","Completed"
"15020200311","SETHAWN M/S","24.1188474156","92.6901729153","Completed"
"15020200314","JNV","24.1573753793","92.6938927174","Completed"
"15020200315","HOLY CHILD ENG. MED","24.158599","92.693201","Completed"
"15020200316","GOVT.SETHAWN P/S","24.1189620324","92.6901159534","Completed"
"15020200318","THINGDAWL GOVT. HIGH SCHOOL","24.16926877","92.6955235004","Completed"
"15020200319","JNV (HIGH SCHOOL SECTION)","24.15734601","92.6938873529","Completed"
"15020200320","JNV (HIGHER SECONDARY SECTION)","24.15729217","92.6936861873","Completed"
"15020200401","GOVT. P/S BUALPUI","24.0919688697","92.6824557781","Completed"
"15020200402","GOVT. R.L.KAMLALA M/S BUALPUI","24.092903934","92.6827813178","Completed"
"15020200403","GOVT. NEPALI P/S BUALPUI","24.0928752427","92.6829565423","Completed"
"15020200405","DISTRICT SPORTS ACADEMY M/S BUALPUI","24.1067573806","92.6880707669","Completed"
"15020200407","BUALPUI NORTH NEW SECONDARY SCHOOL","24.09363633","92.6846766472","Completed"
"15020200501","GOVT. P/S ZANLAWN","23.9814345919","92.7178254024","Completed"
"15020200502","GOVT. M/S ZANLAWN","23.9738483525","92.7209436356","Completed"
"15020200503","ZANLAWN ENG. MED","23.973696","92.722131","Completed"
"15020200601","GOVT. P/S SERKHAN","23.9097541919","92.7387100466","Completed"
"15020200602","GOVT. M/S SERKHAN","23.9097636439","92.7384383178","Completed"
"15020200603","CEE TEE ACADEMY SERKHAN","23.90975","92.738309","Completed"
"15020200605","LALTHANHAWLA NEW SECONDARY SCHOOL","23.91491114","92.7418506145","Completed"
"15020200701","GOVT. P/S - I LUNGDAI","23.8796758104","92.7403242712","Completed"
"15020200702","GOVT. P/S - II LUNGDAI","23.8825925474","92.7413700933","Completed"
"15020200703","GOVT. P/S - III LUNGDAI","23.8896578097","92.7381199534","Completed"
"15020200704","GOVT. M/S - I LUNGDAI","23.8778227368","92.7426042712","Completed"
"15020200705","GOVT. M/S - II LUNGDAI","23.8905596428","92.7387293092","Completed"
"15020200708","PRESBYTERIAN ENGLISH MEDIUM SCHOOL","23.892349","92.737907","Completed"
"15020200710","PM GOVT. HIGH SCHOOL LUNGDAI","23.89134097","92.7398818731","Completed"
"15020200711","SNOW WHITE HIGH SCHOOL, LUNGDAI","23.880474","92.740575","Completed"
"15020200712","LUNGDAI HIGHER SECONDARY SCHOOL","23.89159111","92.7399140596","Completed"
"15020200801","GOVT. P/S NISAPUI","23.9323701936","92.7544859534","Completed"
"15020200802","GOVT. M/S NISAPUI","23.9344436781","92.7584361779","Completed"
"15020200804","TRINITY ANGLISH ACADEMY","23.931463","92.752576","Completed"
"15020200806","NISAPUI GOVT HIGH SCHOOL","23.936141","92.760481","Completed"
"15020200901","GOVT. P/S LUNGMUAT","23.965433902","92.7789044491","Completed"
"15020200902","GOVT. M/S LUNGMUAT","23.9638811571","92.7779915423","Completed"
"15020200903","LUNGMUAT NEW SECONDARY SCHOOL","23.96495038","92.7792298794","Completed"
"15020201001","GOVT. P/S - I N.CHALTLANG","24.0171465998","92.7684624835","Completed"
"15020201002","GOVT. P/S - II N.CHALTLANG","24.0217393989","92.7718888135","Completed"
"15020201003","GOVT. M/S  N.CHALTLANG","24.0206322003","92.7712551399","Completed"
"15020201004","CONVENANT ENG MED","24.013997","92.768078","Completed"
"15020201005","BAPTIST EDUCHILD SCHOOL","24.014736","92.768326","Completed"
"15020201006","LITTLE STAR ACD.","24.019211","92.770554","Completed"
"15020201007","N.CHALTLANG NEW SECONDARY SCHOOL","24.01685182","92.7669560909","Completed"
"15020201101","GOVT. P/S - I BUKPUI","24.0861145894","92.7941075423","Completed"
"15020201102","GOVT. P/S - II BUKPUI","24.0802583073","92.7929774577","Completed"
"15020201103","GOVT. M/S BUKPUI","24.0865598213","92.7955933644","Completed"
"15020201104","CITY ANGELS SCHOOL","24.08594","92.794652","Completed"
"15020201106","CHALKUNGA GOVT. HIGH SCHOOL","24.08644234","92.7903664112","Completed"
"15020201201","GOVT. P/S  THINGTHELH","24.171433","92.7994755423","Completed"
"15020201202","GOVT. M/S THINGTHELH","24.1745083181","92.8004734577","Completed"
"15020201301","GOVT. P/S - I N.HLIMEN","24.2301342163","92.8045482712","Completed"
"15020201302","GOVT. P/S - II N.HLIMEN","24.2333375414","92.8074307288","Completed"
"15020201303","GOVT. M/S  N.HLIMEN","24.2291899732","92.805246627","Completed"
"15020201304","PREBYTERIAN ENG. MED","24.232321","92.806045","Completed"
"15020201305","N.HLIMEN GOVT. HIGH SCHOOL","24.22929635","92.804710865","Completed"
"15020201401","GOVT. P/S KHAMRANG","23.9332810325","92.6534616356","Completed"
"15020201402","GOVT M/S KHAMRANG","23.9332878389","92.6536200466","Completed"
"15020201403","KHAMRANG NEW SECONDARY SCHOOL","23.93487817","92.6540136337","Completed"
"15020201501","GOVT. P/S MUALKHANG","23.8943491442","92.6737245423","Completed"
"15020201502","GOVT. M/S MUALKHANG","23.8932995477","92.6748375043","Completed"
"15020201601","GOVT. P/S - I HORTOKI","24.0646291018","92.597467589","Completed"
"15020201602","GOVT. P/S - II HORTOKI","24.0652756111","92.5996471779","Completed"
"15020201603","GOVT. M/S HORTOKI","24.0659893472","92.5977931313","Completed"
"15020201604","GOVT. CHUAIA M/S HORTOKI","24.0648971018","92.5997933644","Completed"
"15020201607","DILZAU P/S","24.0839584487","92.5841640466","Completed"
"15020201608","TIAUZAU P/S (EGS)","24.0357246511","92.5663552712","Completed"
"15020201611","HORTOKI ENG. MED","24.063213","92.595764","Completed"
"15020201612","DILZAU M/S","24.0839902821","92.5842257374","Completed"
"15020201614","HORTOKI GOVT HIGH SCHOOL","24.06497794","92.5998008251","Completed"
"15020300102","GOVT. P/S - II BILKHAWTHLIR","24.3338328925","92.7206714577","Completed"
"15020300104","GOVT. P/S - IV BILKHAWTHLIR","24.3420588937","92.7177208601","Completed"
"15020300105","GOVT. M/S - I BILKHAWTHLIR","24.3345941074","92.720473","Completed"
"15020300107","BILKHAWTHLIR GOVT. M/S - III","24.3413355622","92.7176143644","Completed"
"15020300113","CHEMPHAI P/S.","24.3366082349","92.7464052159","Completed"
"15020300114","PRESBYTERIAN ENG MED","24.337716","92.720925","Completed"
"15020300115","KHARZAWL  EGS","24.36027","92.7278150466","Completed"
"15020300117","PARTNERSHIP MISSION SCHOOL P/S","24.063266","92.595482","Completed"
"15020300118","PRESBYTERIAN ENG MED P/S","24.337716","92.720925","Completed"
"15020300120","BILKHAWTHLIR HIGH SCHOOL","24.33517587","92.7138054371","Completed"
"15020300201","GOVT. P/S N.CHAWNPUI","24.3757752276","92.7805940933","Completed"
"15020300202","GOVT. M/S N.CHAWNPUI","24.3772407723","92.7796295423","Completed"
"15020300301","GOVT. P/S BUHCHANGPHAI","24.3353748928","92.6554366356","Completed"
"15020300302","GOVT. M/S BUHCHANGPHAI","24.3354702045","92.6554768687","Completed"
"15020300309","BUHCHANGPHAI HIGH SCHOOL","24.334456","92.654027","Completed"
"15020300401","GOVT. P/S SAIHAPUI`K","24.2790173301","92.639157589","Completed"
"15020300402","TUICHHUAHEN P/S (EGS)","24.2614070095","92.655187681","Completed"
"15020300403","SAIHAPUI K\' M/S","24.2790466699","92.6392729239","Completed"
"15020300501","GOVT. P/S PHAISEN","24.419776","92.6897798221","Completed"
"15020300502","GOVT. M/S PHAISEN","24.4198630565","92.6895892712","Completed"
"15020300503","PHAISEN ENGLISH MEDIUM","24.421726","92.69101","Completed"
"15020300504","BUHCHANGPHAI (PHAISEN) RMSA SECONDARY SCHOOL","24.38953599","92.6810261607","Completed"
"15020300601","GOVT. P/S N.CHHIMLUANG","24.3867181003","92.7167625976","Completed"
"15020300602","N.CHHIMLUANG GOVT M/S","24.386798429","92.716608","Completed"
"15020300701","GOVT. P/S - I VAIRENGTE","24.497922","92.76275","Completed"
"15020300702","GOVT. P/S - III VAIRENGTE","24.50469","92.766235","Completed"
"15020300703","GOVT. P/S - V VAIRENGTE","24.505982","92.76919","Completed"
"15020300704","GOVT. M/S - I VAIRENGTE","24.497922","92.76275","Completed"
"15020300705","GOVT. M/S - III VAIRENGTE","24.504219","92.764499","Completed"
"15020300706","Z.D. ENG. P/S VAIRENGTE(PVT)","24.499589","92.762968","Completed"
"15020300708","ST.HENRY P/S VAIRENGTE","24.501164","92.762625","Completed"
"15020300709","STATE VENG M/S","24.4756155294","92.7575660466","Completed"
"15020300710","ST HENRY M/S","24.501164","92.762625","Completed"
"15020300712","VAIRENGTE GOVT HIGH SCHOOL","24.50477103","92.7662050724","Completed"
"15020300713","VAIRENGTE HIGHER SECONDARY SCHOOL","24.5047515","92.7651107311","Completed"
"15020300801","GOVT. P/S - II VAIRENGTE","24.49306","92.758212","Completed"
"15020300802","GOVT. P/S - VI VAIRENGTE","24.4757657647","92.7574778687","Completed"
"15020300803","GOVT. P/S - VII VAIRENGTE","24.4585500906","92.743946","Completed"
"15020300804","GOVT. M/S - II VAIRENGTE","24.49306","92.758212","Completed"
"15020300807","PRESBYTERIAN ENG. P/S (P) VRT","24.496284","92.760705","Completed"
"15020300813","IOC M/S VAIRENGTE","24.4520476751","92.741605","Completed"
"15020300815","ARMY SCHOOL M/S VAIRENGTE","24.485808","92.756088","Completed"
"15020300816","PRESBYTERIAN ENG. M/S (P) VRT","24.496284","92.760705","Completed"
"15020300817","ZD ENGLISH SCHOOL M/S","24.499589","92.762968","Completed"
"15020300819","VAIRENGTE HIGH SCHOOL - II","24.49486175","92.7580940723","Completed"
"15020300820","ST. HENRYS HIGH SCHOOL, VAIRENGTE","24.50292591","92.7643275261","Completed"
"15020300821","VAIRENGTE RMSA SECONDARY SCHOOL","24.45180589","92.7405792475","Completed"
"15020300901","GOVT. P/S - I PHAINUAM","24.4694119434","92.7818376822","Completed"
"15020300902","GOVT. P/S - II PHAINUAM","24.4676817933","92.7870228601","Completed"
"15020300903","GOVT. M/S  PHAINUAM","24.4700570322","92.7806627669","Completed"
"15020300904","P/S CHITE","24.451879","92.759641","Completed"
"15020300905","P/S VAKULTUI","24.4308104205","92.7475722331","Completed"
"15020300906","P/S BUARCHEP","24.4458780923","92.782837589","Completed"
"15020300907","GENESIS ENGLISH SCHOOL","24.467896","92.782372","Completed"
"15020300910","PHAINUAM RMSA SECONDARY SCHOOL","24.46291242","92.7816385031","Completed"
"15020301001","SAIHAPUI V\' P/S (EGS)","24.4827436462","92.782626","Completed"
"15020301002","SAIHAPUI V\' M/S","24.4740595588","92.784460962","Completed"
"15020301101","BUKVANNEI P/S","24.2961473339","92.6398228601","Completed"
"15020301102","BUKVANNEI M/S","24.2961742251","92.6400213436","Completed"
"15020301201","THINGLIAN P/S (EGS)","24.3123844453","92.6204097288","Completed"
"15020301202","THINGLIAN M/S","24.3125188837","92.6202568429","Completed"
"15020301301","GOVT. P/S I BILKHAWTHLIR","24.3343473413","92.718080589","Completed"
"15020301302","GOVT. P/S III BILKHAWTHLIR","24.3339197014","92.7144652605","Completed"
"15020301303","GOVT. M/S II BILKHAWTHLIR","24.3313731109","92.7152726054","Completed"
"15020301306","DAWRVENG M/S (UPS)","24.3368385666","92.7172502712","Completed"
"15020301307","YOUNG LEARNERS ENG MED","24.3283739177","92.711312905","Completed"
"15020301309","T.ROBERT GOVT. HIGH SCHOOL","24.33398324","92.7139288187","Completed"
"15020301401","GOVT M/S SAIPUM","24.3517904358","92.8460791779","Completed"
"15020301402","GOVT P/S I SAIPUM","24.3521695827","92.8466820717","Completed"
"15020301403","GOVT P/S II SAIPUM","24.3564852261","92.8529379534","Completed"
"15020301404","SAIPUM ENGLISH SCHOOL","24.352664","92.848834","Completed"
"15020301405","SAIPUM HIGH SCHOOL","24.35649462","92.8496593237","Completed"
"15020301501","GOVT TM P/S SAIPHAI","24.40740223","92.7946534663","Completed"
"15020301502","GOVT P/S SAIPHAI","24.4034444825","92.7953908665","Completed"
"15020301503","GOVT M/S SAIPHAI","24.402996","92.7950312712","Completed"
"15020301506","COVENANT ENGLISH SCHOOL P/S","24.4055","92.79704","Completed"
"15020301509","SAIPHAI GOVT. HIGH SCHOOL","24.41374228","92.7966749668","Completed"
"15020301510","PMS ENGLISH HIGH SCHOOL","24.40072862","92.7965462208","Completed"
"15030100101","LAIPUITLANG M/S","23.743689595919683","92.72098302841187","Completed"
"15030100102","LAIPUITLANG P/S","23.74410206477778","92.72073090076447","Completed"
"15030100201","CHALTLANG M/S","23.75259175861083","92.72479176521301","Completed"
"15030100202","P.Z. GOVT. M/S","23.752230871959167","92.7262482047081","Completed"
"15030100203","DIET PRAC. M/S","23.749562243700392","92.72414535284042","Completed"
"15030100204","CHALTLANG P/S-I","23.75274642401247","92.7249339222908","Completed"
"15030100205","CHALTLANG P/S-III","23.752216141870505","92.72623479366302","Completed"
"15030100206","DIET PRAC. P/S","23.74959415954088","92.72418826818466","Completed"
"15030100207","MT. CARMEL SCHOOL","23.749633440564605","92.72020518779755","Completed"
"15030100208","ARR ELLS  SCHOOL","23.750524625606044","92.72355258464813","Completed"
"15030100210","EXODUS ENGLISH SCHOOL","23.74708996982369","92.72092938423157","Completed"
"15030100211","HIGHLAND PUBLIC SCHOOL","23.748278238399095","92.72092401981354","Completed"
"15030100212","AR ELL HIGH SCHOOL","23.750541810932592","92.72357404232025","Completed"
"15030100216","GREENLAND HIGHER SECONDARY SCHOOL (HSS SECTION)","23.74704577780806","92.72064238786697","Completed"
"15030100217","MT. CARMEL SCHOOL","23.74966781145063","92.72016763687134","Completed"
"15030100218","GREENLAND HIGHER SECONDARY SCHOOL (HS SECTION)","23.74706787381775","92.72079259157181","Completed"
"15030100219","MT. CARMEL H.S.S.","23.749599069669507","92.72039294242859","Completed"
"15030100220","AIZAWL NORTH HIGH SCHOOL","23.75052953569957","92.72457182407379","Completed"
"15030100221","CHALTLANG GOVT. HIGH SCHOOL","23.753021384272845","92.7252209186554","Completed"
"15030100222","CHALTLANG GOVT. HIGHER SECONDARY SCHOOL","23.752878994210484","92.72550791501999","Completed"
"15030100301","ENDALA M/S","23.747588356517348","92.72727012634277","Completed"
"15030100302","R AMHLUN NORTH P/S","23.747725842166158","92.72613555192947","Completed"
"15030100303","LOVE ACADEMY","23.74751715853503","92.72445380687714","Completed"
"15030100304","HOLY CHILD","23.748072010746238","92.72550523281097","Completed"
"15030100305","MONFORT HIGHER SECONDARY SCHOOL","23.74880608149909","92.72497951984406","Completed"
"15030100306","ST. JOSEPH HIGHER SECONDARY SCHOOL, HS SECTION","23.74814566351689","92.72380471229553","Completed"
"15030100307","ST. JOSEPH HIGHER SECONDARY SCHOOL (HSS SECTION)","23.74815057370012","92.72388517856598","Completed"
"15030100308","HOLY CHILD SCHOOL","23.747932070367217","92.72587269544601","Completed"
"15030100309","LOVE ACADEMY HIGH SCHOOL","23.746893560750546","92.72357940673828","Completed"
"15030100310","MONTFORT SCHOOL","23.748791351023","92.72496342658997","Completed"
"15030100311","HRANGCHHUANA GOVT. HIGH SCHOOL","23.747502427913144","92.72214710712433","Completed"
"15030100401","B.M M/S","23.74426165059268","92.72713869810104","Completed"
"15030100402","RAMHLUN VENGTHAR P/S","23.74567581788565","92.72747129201889","Completed"
"15030100403","RAMHLUN VENGTHAR HIGH SCHOOL","23.744480160083604","92.7269697189331","Completed"
"15030100501","RAMHLUN M/S","23.74407996826492","92.72449940443039","Completed"
"15030100502","RAMHLUN VENGLAI P/S","23.74772093196691","92.72613555192947","Completed"
"15030100503","L.M. P/S","23.744831247599087","92.72160798311234","Completed"
"15030100504","ROSE BUD","23.746299421500993","92.72511899471283","Completed"
"15030100505","PUBLIC HIGHER SECONDARY SCHOOL","23.746277325360918","92.72393077611923","Completed"
"15030100506","CAMFORD JUNIOR HIGH SCHOOL","23.745616894555003","92.72418558597565","Completed"
"15030100507","ROSEBUD SCHOOL","23.74631660738512","92.72510826587677","Completed"
"15030100508","CAMFORD JUNIOR HIGH","23.745609529136797","92.72417485713959","Completed"
"15030100601","E.M P/S","23.743640492397194","92.72668540477753","Completed"
"15030100602","L.K.RICHMOND SCHOOL","23.743642947573747","92.72642523050308","Completed"
"15030100701","RAMHLUN SOUTH M/S","23.741214755342455","92.72595316171646","Completed"
"15030100702","RAMHLUN SOUTH P/S","23.74118038222561","92.72561520338058","Completed"
"15030100703","KID CARE ENGLISH MEDIUM","23.74117056133342","92.72440820932388","Completed"
"15030100704","SHEPHERD SCHOOL","23.743038972744383","92.72338092327118","Completed"
"15030100705","RAMHLUN SOUTH HIGH SCHOOL","23.741502016035806","92.72658348083496","Completed"
"15030100801","RAMTHAR NORTH M/S","23.739044320741623","92.72645205259323","Completed"
"15030100802","RAMTHAR NORTH P/S","23.739132710187327","92.72665053606033","Completed"
"15030100901","RAMTHAR M/S","23.738494340620967","92.72101253271103","Completed"
"15030100902","RAMTHAR P/S-I","23.739675321859398","92.72334069013596","Completed"
"15030100903","RAMTHAR P/S-II","23.73872022559434","92.72151947021484","Completed"
"15030100904","ST. LOWRENCE SCHOOL.","23.724363032757374","92.71933086773674","Completed"
"15030100905","PRESBY. ENGLISH SCHOOL","23.738592551527066","92.72346809506416","Completed"
"15030100906","ST. LAWRENCE SCHOOL","23.74079982211152","92.72683024406433","Completed"
"15030100907","REPUBLIC GOVT. HIGH SCHOOL","23.739319309931318","92.72265940904617","Completed"
"15030100908","REPUBLIC GOVT. HIGHER SECONDARY  SCHOOL","23.739368415082684","92.72249042987823","Completed"
"15030100909","PRESBYTERIAN SCHOOL, RAMTHAR","23.738587640983518","92.72346407175064","Completed"
"15030101001","AIZAWL VENGLAI M/S","23.740294043723203","92.72205591201782","Completed"
"15030101002","AIZAWL VENGLAI P/S","23.74047327609516","92.7221417427063","Completed"
"15030101003","ZABANGA HIGHER SECONDARY SCHOOL","23.73942488598386","92.71883726119995","Completed"
"15030101004","ZABANGA HIGH SCHOOL","23.739378236110735","92.71889626979828","Completed"
"15030101101","ELECTRIC M/S","23.736144622618827","92.71823644638062","Completed"
"15030101102","ELECTRIC P/S-I","23.736164265160195","92.71841615438461","Completed"
"15030101103","ELECTRIC P/S-II","23.739424885983887","92.71865218877792","Completed"
"15030101104","ST. MARY\'S SCHOOL","23.736910679538376","92.71775230765343","Completed"
"15030101105","WIMBERG SCHOOL","23.736306673496625","92.71855965256691","Completed"
"15030101106","ZABANGA P/S","23.73789770777535","92.71876886487007","Completed"
"15030101107","OXFORD HIGHER SECONDARY SCHOOL","23.73639506479957","92.71853148937225","Completed"
"15030101108","OXFORD HIGH SCHOOL","23.736309128811417","92.7185770869255","Completed"
"15030101109","ETON ENGLISH SCHOOL","23.73776021175279","92.7180165052414","Completed"
"15030101110","PIANGHLEIA GOVT. HIGH SCHOOL","23.736031677948414","92.71844029426575","Completed"
"15030101201","CHHINGA VENG M/S","23.73488258312847","92.71926641464233","Completed"
"15030101202","CHHINGA VENG P/S-I","23.734276112332598","92.71976262331009","Completed"
"15030101203","CHHINGA VENG P/S-II","23.733195752505498","92.7214926481247","Completed"
"15030101204","LITTLE KINGDOM SCHOOL","23.733085260654697","92.71995171904564","Completed"
"15030101207","NAZARETH ENGLISH SCHOOL","23.734160710687423","92.72234827280045","Completed"
"15030101208","GILEAD SPECIAL SCHOOL","23.733419191295283","92.73762077093124","Completed"
"15030101209","GILEAD SPECIAL SCHOOL M/S","23.733419191295283","92.73762077093124","Completed"
"15030101212","NAZARETH ENGLISH SCHOOL","23.734180353527826","92.72235631942749","Completed"
"15030101213","LITTLE KINGDOM","23.733144189653437","92.71995842456818","Completed"
"15030101214","GOOD SHEPHERD SCHOOL","23.736348413841586","92.71864145994186","Completed"
"15030101215","KVM HIGH SCHOOL","23.733831692669934","92.72476762533188","Completed"
"15030101301","ARMED VENG M/S","23.73394954996572","92.72501975297928","Completed"
"15030101302","ARMED VENG P/S-I","23.73369664772081","92.72496074438095","Completed"
"15030101303","ARMED VENG P/S-II","23.735052001591374","92.72514045238495","Completed"
"15030101304","AIZAWL EAST HIGH SCHOOL","23.733642629701965","92.73036807775497","Completed"
"15030101401","MUMA COMP. M/S ","23.73330869963394","92.7301561832428","Completed"
"15030101402","ARMED VENG SOUTH P/S-I","23.73188457650259","92.726591527462","Completed"
"15030101403","ARMED VENG SOUTH P/S-II","23.733316065747605","92.73016422986984","Completed"
"15030101404","GRACE ENGLISH MEDIUM SCHOOL","23.733512495291908","92.72901490330696","Completed"
"15030101405","1ST BN. M.A.P. SCHOOL","23.73393481780957","92.7293287217617","Completed"
"15030101407","1ST BN. M.A.P. M/S","23.73394954996572","92.72935420274734","Completed"
"15030101501","CHITE P/S","23.73585489478955","92.73365378379822","Completed"
"15030101502","CHITE UPS","23.73585735011284","92.73365914821625","Completed"
"15030101701","10TH A.R. P/S","23.727567","92.719456","Completed"
"15030101702","10TH A.R. M/S","23.727664","92.719293","Completed"
"15030200101","ZARKAWT P/S","23.737144","92.715866","Completed"
"15030200102","COMBINE P/S","23.734781633969583","92.71597441104507","Completed"
"15030200103","COMBINE M/S","23.734789","92.715961","Completed"
"15030200104","HOME MISSION SCHOOL","23.737231","92.715304","Completed"
"15030200106","PIONEER MISSIONARY SCHOOL","23.737886","92.715903","Completed"
"15030200109","MIZO GOVT. HIGH SCHOOL","23.739721971626164","92.71605983376503","Completed"
"15030200110","HOME MISSION HIGHER SECONDARY SCHOOL","23.737347722814476","92.71523505449295","Completed"
"15030200111","MIZO GOVT. HIGHER SECONDARY SCHOOL","23.74006325099064","92.71560251712799","Completed"
"15030200112","HOME MISSION SCHOOL (HS)","23.73717094144116","92.7153691649437","Completed"
"15030200113","PROVIDENCE SCHOOL","23.734234371323804","92.7159833908081","Completed"
"15030200114","PROVIDENCE SCHOOL ( HSS)","23.73419017494697","92.71603167057037","Completed"
"15030200201","DAWRPUI M/S","23.73400872358191","92.71805928836056","Completed"
"15030200202","DAWRPUI P/S","23.733746","92.717952","Completed"
"15030200203","I CENTENARY SCHOOL DAWRPUI","23.734238","92.717493","Completed"
"15030200205","MODERN P/S","23.730969","92.717636","Completed"
"15030200206","MODERN M/S","23.730996","92.717641","Completed"
"15030200209","DAWRPUI SCHOOL OF SCIENCE AND TECHNOLOGY","23.734010933931717","92.71809428930283","Completed"
"15030200210","CENTENARY SCHOOL","23.734278567685635","92.71758198738098","Completed"
"15030200211","MODERN ENGLISH SCHOOL (HS)","23.73105710470758","92.71757125854492","Completed"
"15030200212","MODERN ENGLISH HIGHER SECONDARY SCHOOL","23.73103009515394","92.71757662296295","Completed"
"15030200213","CHILDREN GUIDING SCHOOL","23.727609658260292","92.71782338619232","Completed"
"15030200214","CHILDREN GUIDING SCHOOL (HSS SECTION)","23.727629302088054","92.71787166595459","Completed"
"15030200301","SARON M/S","23.732363378257432","23.732363378257432","Completed"
"15030200302","SARON P/S","23.732937938041243","92.7180714905262","Completed"
"15030200303","K.D. ELEMENTARY SCHOOL","23.733203118625546","92.71800443530083","Completed"
"15030200401","TUITHIANG P/S","23.731123400861044","92.7208717167377","Completed"
"15030200402","TUITHIANG M/S","23.731123400861044","92.72087171673775","Completed"
"15030200501","VENGHLUI P/S","23.72435856397548","92.72022932767868","Completed"
"15030200502","BIBLE M/S","23.72546355224622","92.72191911935806","Completed"
"15030200504","MICE","23.724171942809754","92.72091194987297","Completed"
"15030200507","MICE GOVT. HIGH SCHOOL","23.72423824246498","92.72089719772339","Completed"
"15030200508","LALFAK SENIOR HIGHER SECONDARY SCHOOL","23.72323392185203","92.72011131048203","Completed"
"15030200510","MICE GOVT. HIGHER SECONDARY SCHOOL","23.724137565197438","92.72088915109634","Completed"
"15030200512","MICE M/S","23.724171942809754","92.72091194987297","Completed"
"15030200601","REPUBLIC P/S-I","23.71982064727664","92.72234693169594","Completed"
"15030200602","REPUBLIC P/S-II","23.718641941776905","92.72348552942276","Completed"
"15030200603","REPUBLIC M/S-I","23.718990643263623","92.72528260946274","Completed"
"15030200604","REPUBLIC M/S-II","23.718008383168545","92.72360622882843","Completed"
"15030200605","PRES. SCHOOL REPUBLIC","23.719722422225257","92.72221148014069","Completed"
"15030200609","AIZAWL GOVT. HIGH SCHOOL","23.717416567889614","92.7237617969513","Completed"
"15030200610","SPRINGFIELD ENGLISH SECONDARY SCHOOL","23.721151589429194","92.72389590740204","Completed"
"15030200612","SPRINGFIELD HIGHER SECONDARY SCHOOL","23.721107388616378","92.72391736507416","Completed"
"15030200701","HOLY HEART SCHOOL","23.720429640943756","92.72058606147766","Completed"
"15030200702","UPPER REPUBLIC MODEL SCHOOL","23.719918872254024","92.72081807255745","Completed"
"15030200705","BRIGHTER HIGHER SECONDARY SCHOOL","23.720125144465715","92.71985650062561","Completed"
"15030200706","BRIGHTER HIGHER SECONDARY SCHOOL (H/S SECTION)","23.719918872254024","92.71982967853546","Completed"
"15030200707","UPPER REPUBLIC MODEL SCHOOL M/S","23.719918872254024","92.72081807255745","Completed"
"15030200801","COLLEGE VENG P/S","23.724039343398093","92.72532284259796","Completed"
"15030200802","VENGHLUI M/S","23.724763727428876","92.72605240345001","Completed"
"15030200807","CENTRAL GOVT. HIGH SCHOOL","23.72454027380118","92.72626161575317","Completed"
"15030200808","REV. SAIAITHANGA MEMORIAL SCHOOL, HS SECTION","23.725330954148205","92.72533893585205","Completed"
"15030200809","CENTRAL GOVT. HIGHER SECONDARY SCHOOL","23.724780916153566","92.72605240345001","Completed"
"15030200810","REV. SAIAITHANGA MEMORIAL SCHOOL, HSS SECTION","23.725296576841565","92.72538989782333","Completed"
"15030200901","ITI P/S","23.718509336741477","92.73108825087547","Completed"
"15030200902","ITI M/S","23.72068993575644","92.73354113101959","Completed"
"15030200903","NEW DAWN SCHOOL","23.719491593063285","92.72853076457977","Completed"
"15030200904","HOLY TRINITY","23.721009164534298","92.72539258003235","Completed"
"15030200905","BETHEL ENGLISH MEDIUM","23.714357","92.732940","Completed"
"15030200909","ITI VENG HIGH SCHOOL","23.716964723710987","92.7362447977066","Completed"
"15030200911","HOLY TRINITY SCHOOL","23.722251693720814","92.72482931613922","Completed"
"15030201002","3RD MAP SCHOOL","23.719678220927992","92.73686170578003","Completed"
"15030201003","3RD MAP M/S","23.719678220927992","92.73686170578003","Completed"
"15030201102","BETHLEHEM M/S-II","23.726185472858056","92.72279351949692","Completed"
"15030201103","MT. HOREB","23.728375765350687","92.7222141623497","Completed"
"15030201104","GENESIS","23.726846002160393","92.72469252347946","Completed"
"15030201105","HOLY TABOR","23.727094006721934","92.72384092211723","Completed"
"15030201109","GOVT. BETHLEHEM P/S","23.726352447124174","92.72295981645584","Completed"
"15030201201","BETHLEHEM VENGTHLANG M/S","23.73034012193082","92.7286085486412","Completed"
"15030201202","BETHLEHEM M/S-I","23.729225353204658","92.727490067482","Completed"
"15030201203","BETHLEHEM P/S-I","23.72907802622804","92.72730231285095","Completed"
"15030201204","REV. THIANGA P/S","23.7289159663614","92.72379130125046","Completed"
"15030201205","BETHLEHEM P/S-II","23.72857711326184","92.73013204336166","Completed"
"15030201206","SPRINGDALE ENG. MEDIUM","23.728353666170754","92.72563263773918","Completed"
"15030201211","BETHLEHEM VENGTHLANG GOVT. HIGH SCHOOL","23.728960164526782","92.72378861904144","Completed"
"15030201401","DAM VENG P/S","23.712821927212282","92.7218896150589","Completed"
"15030201402","DAM VENG M/S","23.7128170156979","92.72189497947693","Completed"
"15030201501","VENGHNUAI P/S","23.713219759261765","92.72391200065613","Completed"
"15030201502","VENGHNUAI M/S","23.71329588747861","92.72371619939804","Completed"
"15030201503","SOUTH GATE ENG. MEDIUM","23.712282","92.722757","Completed"
"15030201504","CAROLYN ELEMENTARY SCHOOL","23.712214","92.721146","Completed"
"15030201601","SALEM P/S","23.71412347200132","92.72599875926971","Completed"
"15030201602","SALEM P/S-II","23.713347458180916","92.72562325000763","Completed"
"15030201603","SALEM M/S","23.714572870298994","92.7268785238266","Completed"
"15030201608","HRANGCHHUNGA GOVT. HIGH SCHOOL","23.711495811617844","92.72609531879425","Completed"
"15030300101","TUIKHURHLU P/S","23.734472540429785","92.81210035085678","Completed"
"15030300201","SELING P/S-I","23.722710886293207","92.85601884126663","Completed"
"15030300203","SELING M/S","23.718533893239687","92.8574538230896","Completed"
"15030300204","SAMARITAN RIANGVAI RUN ","23.732991956352176","92.8437289595604","Completed"
"15030300205","DON BOSCO SCHOOL","23.716633206606154","92.85286724567413","Completed"
"15030300206","SELING PRESBYTERIAN SCHOOL","23.718354630696364","92.85694554448128","Completed"
"15030300207","SAMARITAN COMPREHENSIVE SCHOOL P/S","23.732972313332606","92.84371823072433","Completed"
"15030300210","DONBOSCO SCHOOL","23.716618472493035","92.85288333892822","Completed"
"15030300211","SELING GOVT. HIGH SCHOOL","23.714617073326608","92.85168707370758","Completed"
"15030300301","THINGSULTHLIAH P/S-I","23.69018525036598","92.85900145769119","Completed"
"15030300302","THINGSULTHLIAH P/S-II","23.692668427875127","92.86191433668137","Completed"
"15030300303","THINGSULTHLIAH P/S-III","23.68780518724741","92.8593099117279","Completed"
"15030300305","THINGSULTHLIAH M/S-I","23.69307123362292","92.86176681518555","Completed"
"15030300306","THINGSULTHLIAH M/S-II","23.68987822711681","92.85904973745346","Completed"
"15030300307","LALHNAM M/S","23.674712836608773","92.85697102546692","Completed"
"15030300308","RADIANT HEARTS SCHOOL","23.693967717564433","92.86095544695854","Completed"
"15030300309","PRESBYTERIAN SCHOOL","23.689932263261014","92.85979002714157","Completed"
"15030300310","LALHNAM P/S","23.67478161786379","92.85701394081116","Completed"
"15030300312","TUIKHURHLU M/S","23.73445780833277","92.81209230422974","Completed"
"15030300313","PRESBYTERIAN SCHOOL M/S","23.689932263261014","92.85979002714157","Completed"
"15030300314","RADIANT HEARTS SCHOOL M/S","23.693967717564433","92.86095544695854","Completed"
"15030300317","THINGSULTHLIAH HIGHER SECONDARY SCHOOL","23.69396034922835","92.86093801259995","Completed"
"15030300318","THINGSULTHLIAH GOVT. HIGH SCHOOL","23.69314000521176","92.86165952682495","Completed"
"15030300319","RADIANT HEARTS SCHOOL","23.692948427124147","92.85985171794891","Completed"
"15030300401","THINGSULTHLIAH P/S-V","23.704624352346126","92.86209404468536","Completed"
"15030300402","THINGSULTHLIAH M/S-III","23.70526779955707","92.86394745111465","Completed"
"15030300405","THINGSUL TLANGNUAM HIGH SCHOOL","23.705486374414416","92.86529123783112","Completed"
"15030300501","DARLAWNG P/S","23.624062817737784","92.85078451037407","Completed"
"15030300502","DARLAWNG M/S","23.6268814540926","92.85268351435661","Completed"
"15030300601","TLUNGVEL P/S-I","23.60621823848271","92.8526084125042","Completed"
"15030300602","TLUNGVEL P/S-II","23.606872000964643","92.85460263490677","Completed"
"15030300603","TLUNGVEL P/S-III","23.60494019714752","92.85427272319794","Completed"
"15030300604","TLUNGVEL P/S-IV","23.611772658003613","92.8506638109684","Completed"
"15030300605","TLUNGVEL M/S-I","23.612160967026288","92.85090118646622","Completed"
"15030300606","TLUNVEL M/S-II","23.605891356019235","92.85315692424774","Completed"
"15030300607","PRES. ENG. SCHOOL TLUNGVEL ","23.610155510588548","92.85005360841751","Completed"
"15030300701","PHULMAWI P/S","23.585900822116265","92.85174608230591","Completed"
"15030300702","PHULMAWI M/S","23.585836910446595","92.85133302211761","Completed"
"15030400101","MUANNA P/S - II","23.7636952854822","92.74194180965424","Completed"
"15030400103","P.Z. ENGLISH SCHOOL","23.75230452237748","92.74289935827255","Completed"
"15030400106","MUANNA UPS","23.76369037588526","92.74195790290833","Completed"
"15030400109","CALVARY COMPREHENSIVE SCHOOL ","23.758694765030597","92.74247825145721","Completed"
"15030400201","ZUANGTUI P/S - I","23.75211303120322","92.74241119623184","Completed"
"15030400202","ZUANGTUI M/S","23.75194117990959","92.74247288703918","Completed"
"15030400207","ZUANGTUI HIGH SCHOOL","23.75418013898987","92.7420437335968","Completed"
"15030400301","THUAMPUI P/S","23.747713566667713","92.73803919553757","Completed"
"15030400302","NEPALI P/S","23.755376","92.731204","Completed"
"15030400303","T.S. M/S ","23.743424436678314","92.73807406425476","Completed"
"15030400305","ELL BEE ENG. SCHOOL","23.7439572097919","92.7393789589405","Completed"
"15030400306","KENDRYA VIDYALAYA","23.74147746386455","92.74000257253647","Completed"
"15030400308","C.L.BUANGA MEM. SHCOOL","23.745449944973412","92.73791581392288","Completed"
"15030400309","HOLLY CROSS SCHOOL","23.741575672521805","92.74254262447357","Completed"
"15030400310","KENDRIYA VIDYALAYA M/S","23.741639508109312","92.73982152342796","Completed"
"15030400314","KENDRIYA VIDHYALAYA H.S.S SECTION","23.74128104632791","92.74016618728638","Completed"
"15030400315","KENDRIYA VIDHYALAYA HS SECTION","23.74147746386455","92.73992478847504","Completed"
"15030400401","ZEMABAWK P/S- II","23.735872082051632","92.7496987581253","Completed"
"15030400402","ZEMABAWK P/S - III","23.736876305285936","92.74717211723328","Completed"
"15030400403","ZEMABAWK M/S","23.73452655810461","92.74718552827835","Completed"
"15030400404","C.Z.HUALA M/S","23.732790615261244","92.75782585144043","Completed"
"15030400406","MILLENIUM ENG. SCHOOL","23.733841514115312","92.75000721216202","Completed"
"15030400407","T.L. ENG. SCHOOL","23.738803704724507","92.7487425506115","Completed"
"15030400409","LUNGBIAL P/S","23.72773243213544","92.75379180908203","Completed"
"15030400411","FERANDO ENG. SCHOOL","23.729289194842853","92.75426119565964","Completed"
"15030400412","SENTEA MEM. SCHOOL","23.738663754387705","92.74860173463821","Completed"
"15030400414","LUNGBIAL UPS","23.72772261022968","92.75376498699188","Completed"
"15030400417","EBENEZER BOARDING SCHOOL","23.73903941021511","92.74820476770401","Completed"
"15030400418","ZEMABAWK GOVT. HIGH SCHOOL","23.733910264212266","92.74842739105225","Completed"
"15030400419","ZEMABAWK GOVT. HIGHER SECONDARY SCHOOL","23.73427365697947","92.74829864501953","Completed"
"15030400501","ZEMABAWK P/S- I","23.7394617148193","92.74847835302353","Completed"
"15030400502","ZEMABAWK P/S- IV","23.74216246770606","92.74921327829361","Completed"
"15030400503","R.K.M. M/S","23.74169843323925","92.74981677532196","Completed"
"15030400504","EBENEZER ENG. SCHOOL","23.739059052320066","92.74845689535141","Completed"
"15030400506","PRESBY. ENG. SCHOOL","23.739771076625743","92.7499401569366","Completed"
"15030400509","ZEMABAWK NORTH HIGH SCHOOL","23.74224103422463","92.75021642446518","Completed"
"15030400510","LALSAVUNGA ELEMENTARY SCHOOL","23.739098336521113","92.74864330887794","Completed"
"15030400601","FALKLAND P/S","23.736709344502238","92.74076163768768","Completed"
"15030400603","FALKLAND UPS","23.736738808185486","92.74079382419586","Completed"
"15030400606","MOUNT ARARAT HIGHER SECONDARY SCHOOL (H/S SECTION)","23.736606221558358","92.74254262447357","Completed"
"15030400701","BUNGBANGLA P/S","23.72891105545318","92.78172165155411","Completed"
"15030400703","BUNGBANGLA UPS","23.72895034271354","92.78183162212372","Completed"
"15030400801","TUIRIAL AIRFIELD P/S","23.73774548002748","92.80000358819962","Completed"
"15030400802","TUIRIAL AIRFIELD M/S","23.72979256051007","92.79626056551933","Completed"
"15030400804","TUIRIAL UPS","23.718411110702377","92.79872015118599","Completed"
"15030400807","TUIRIAL RMSA SECONDARY SCHOOL","23.729704164728712","92.79631286859512","Completed"
"15030400901","TUIRIAL LEIKAI P/S","23.718524070640964","92.79876038432121","Completed"
"15030401001","KEIFANG P/S - I","23.668005","92.963352","Completed"
"15030401002","KEIFANG P/S- II","23.675171","92.966030","Completed"
"15030401003","KEIFANG P/S- III","23.665048","92.961987","Completed"
"15030401004","KEIFANG P/S- IV","23.667176","92.965854","Completed"
"15030401005","KEIFANG M/S - I","23.666824","92.963266","Completed"
"15030401006","KEIFANG M/S- II","23.674402","92.963576","Completed"
"15030401008","PRESBY. ENG. SCHOOL","23.669848927500354","92.96103000640869","Completed"
"15030401009","GRACELAND ENG. SCHOOL","23.67515659727046","92.96455346032712","Completed"
"15030401012","KEIFANG COMPREHENSIVE GOVT. HIGH SCHOOL","23.675346605374255","92.96284317970276","Completed"
"15030401101","RULCHAWM P/S","23.664489","92.968808","Completed"
"15030401102","RULCHAWM M/S","23.663659","92.969659","Completed"
"15030401106","RULCHAWM GOVT. HIGH SCHOOL","23.66391373061069","92.96480655670166","Completed"
"15030401201","RUALLUNG P/S","23.653886","92.968545","Completed"
"15030401202","RUALLUNG M/S","23.654090","92.967526","Completed"
"15030401203","PRESBYTERIAN LITTLE ANGEL SCHOOL","23.65423897872674","92.96646416187286","Completed"
"15030401301","MUALPHENG P/S","23.609709","92.976336","Completed"
"15030401302","MUALPHENG M/S","23.608310","92.974834","Completed"
"15030401401","TAWIZO P/S","23.562012","92.959028","Completed"
"15030401402","TAWIZO M/S","23.561781","92.956359","Completed"
"15030401403","TAWIZO RMSA SECONDARY SCHOOL","23.561499051450202","92.96122312545776","Completed"
"15030401501","LENCHIM P/S","23.599266","92.931766","Completed"
"15030401502","LENCHIM M/S","23.599489","92.929692","Completed"
"15030401601","MAITE P/S","23.521595","92.991295","Completed"
"15030401602","MAITE M/S","23.520848","92.991178","Completed"
"15030401605","MAITE HIGH SCHOOL","23.520729185843354","92.99113512039185","Completed"
"15030401606","BLOOMING DALE ENGLISH MEDIUM","23.608725129530114","92.97624886035919","Completed"
"15030401801","BERAW UPS","23.728309467799665","92.76749655604362","Completed"
"15030401802","BERAWLUI P/S","23.72830455686861","92.76745766401291","Completed"
"15030401901","CALVARY P/S","23.758616208439147","92.74280413985252","Completed"
"15030401902","CALVARY M/S","23.758505738152216","92.74268478155136","Completed"
"15030500101","SAITUAL P/S - I","23.687611","92.961805","Completed"
"15030500102","SAITUAL P/S - II","23.693109","92.964098","Completed"
"15030500103","SAITUAL P/S - III","23.690067","92.964831","Completed"
"15030500104","SAITUAL P/S - IV","23.698568","92.966506","Completed"
"15030500106","SAITUAL M/S - I","23.690709","92.966490","Completed"
"15030500107","SAITUAL M/S - II","23.682708","92.964848","Completed"
"15030500108","SAITUAL M/S - III","23.698603","92.966167","Completed"
"15030500109","WILLIAM BOOTH M/S, SAITUAL","23.692889","92.972682","Completed"
"15030500110","PRESBY. ENG. SCHOOL","23.85053176303207","93.04801672697067","Completed"
"15030500111","ROSE BUD ENG. SCHOOL","23.686665492542513","92.96417623758316","Completed"
"15030500114","OXFORD ENG. SCHOOL","23.687554651764238","92.96233892440796","Completed"
"15030500119","SAITUAL GOVT. HIGH SCHOOL","23.695050858443803","92.96521961688995","Completed"
"15030500120","ROSEBUD ENGLISH SCHOOL","23.74631660738512","92.72510826587677","Completed"
"15030500121","SAITUAL GOVT. HIGHER SECONDARY SCHOOL","23.694775775897156","92.9656434059143","Completed"
"15030500122","SAITUAL RMSA  SECONDARY SCHOOL","23.687702025636046","92.96176493167877","Completed"
"15030500201","SIHFA P/S - I","23.738580","92.980409","Completed"
"15030500202","SIHFA P/S - II","23.733296","92.981398","Completed"
"15030500203","SIHFA M/S","23.741040","92.980658","Completed"
"15030500206","SIHFA GOVERNMENT HIGH SCHOOL","23.74100606127908","92.98067450523376","Completed"
"15030500301","DILKHAN P/S","23.743828","92.961798","Completed"
"15030500302","DILKHAN UPS","23.743784","92.961832","Completed"
"15030500401","TUALBUNG P/S","23.768730","92.946643","Completed"
"15030500402","TUALBUNG M/S","23.771999","92.947582","Completed"
"15030500501","BUHBAN P/S","23.817316662908972","92.95993030071259","Completed"
"15030500502","BUHBAN M/S","23.816987855192263","92.96046406030655","Completed"
"15030500503","BUHBAN RMSA SECONDARY SCHOOL","23.817012393110335","92.96413064002991","Completed"
"15030500601","N.LUNGPHER P/S","23.787514468457562","92.97341644763947","Completed"
"15030500602","N.LUNGPHER M/S","23.788172232292926","92.97301948070526","Completed"
"15030500605","N.LUNGPHER HIGH SCHOOL","23.786871427460596","92.9748809337616","Completed"
"15030500701","THANGLAILUNG P/S","23.81707373788521","93.05338382720947","Completed"
"15030500704","T. LALDENGA M/S","23.817679822702708","93.05374324321747","Completed"
"15030500707","THANGLAILUNG HIGH SCHOOL","23.813581947161584","93.05280447006226","Completed"
"15030500801","PHULLEN P/S - I","23.850762359632242","93.05014371871948","Completed"
"15030500802","PHULLEN P/S - II","23.848682069074925","93.04313778877258","Completed"
"15030500803","PHULLEN M/S - I","23.847906857921835","93.03858876228333","Completed"
"15030500804","PHULLEN M/S - II","23.851424709286988","93.04998278617859","Completed"
"15030500805","PRESBY. ENG. SCHOOL","23.85053176303207","93.04801672697067","Completed"
"15030500806","CHRISTIAN CHILDREN SCHOOL","23.850992955822097","93.04853975772858","Completed"
"15030500810","NATIONAL GOVT. HIGH SCHOOL","23.853544205432737","93.04356157779694\n","Completed"
"15030500901","LUANGPAWN P/S","23.856934345941813","93.08586806058884","Completed"
"15030500902","LUANGPAWN M/S","23.856440","93.086405","Completed"
"15030501001","ZAWNGIN P/S","23.89694699675791","93.01582753658295","Completed"
"15030501002","ZAWNGIN M/S","23.901365926386898","93.01367104053497","Completed"
"15030501101","PHUAIBUANG P/S - I","23.925640370042803","93.12388300895691","Completed"
"15030501102","PHUAIBUANG P/S - II","23.9268171968367","93.11993479728699","Completed"
"15030501104","PHUAIBUANG M/S - I","23.92584141204631","93.11866879463196","Completed"
"15030501105","PHUAIBUANG M/S - II","23.92759438698501","93.12403053045273","Completed"
"15030501107","PRESBY. ENG. SCHOOL","23.92717269448806","93.11944931745529","Completed"
"15030501110","PHUAIBUANG GOVT. HIGH SCHOOL","23.926140522740603","93.12502562999725\n","Completed"
"15030501201","KHAWLIAN P/S - I","23.99969088770644","93.12642574310303","Completed"
"15030501202","KHAWLIAN P/S - II","23.991550648157496","93.12692999839783","Completed"
"15030501204","KHAWLIAN M/S - I","23.997848229552524","93.12418341636658","Completed"
"15030501205","KHAWLIAN M/S - II","23.989864706385145","93.12593758106232","Completed"
"15030501206","RIMAWII CHRISTIAN SCHOOL","23.998299095155783","93.12610119581223","Completed"
"15030501210","KHAWLIAN GOVT. HIGH SCHOOL","24.00286402042726","93.12521874904633","Completed"
"15030501211","RIMAWII ENGLISH SCHOOL","23.998308896564406","93.12610387802124","Completed"
"15030501301","N.E.TLANGNUAM P/S","24.01654802445304","93.13047051429749","Completed"
"15030501302","N.E.TLANGNUAM M/S","24.01620992336359","93.1304007768631","Completed"
"15030501303","GRACE MODEL SCHOOL","24.01825811634357","93.13395604491234","Completed"
"15030501304","N.E TLANGNUAM RMSA SECONDARY SCHOOL","24.015847321207282","93.13037931919098\n","Completed"
"15030501401","DAIDO P/S","24.044568123485494","93.14759910106659","Completed"
"15030501402","DAIDO M/S","24.043402170228994","93.14633846282959","Completed"
"15030501404","PRESBYTERIAN ENGLISH SCHOOL","24.044411357277056","93.14723163843155","Completed"
"15030600101","CHANMARI M/S","23.74227295185928","92.71859183907509","Completed"
"15030600102","CHANMARI P/S","23.74221648219268","92.71840408444405","Completed"
"15030600103","NEUHOF SCHOOL","23.739528006696812","92.71681487560272","Completed"
"15030600105","ROYAL ENGLISH ACADEMY","23.74262404532413","92.71803930401802","Completed"
"15030600109","ROYAL ENGLISH ACADEMY","23.742081445934154","92.71734058856964","Completed"
"15030600110","STAINES MEMORIAL SCHOOL","23.741150919546808","92.71950781345367","Completed"
"15030600111","VINCENT SCHOOL","23.737254421564007","92.74169504642487","Completed"
"15030600112","STAINES MEMORIAL SCHOOL H.S.S.","23.74108708371987","92.7194407582283","Completed"
"15030600113","NEUHOF ENGLISH MEDIUM SCHOOL","23.73864902276455","92.7168282866478","Completed"
"15030600201","CHANMARI WEST M/S","23.743908106370284","92.71624222397804","Completed"
"15030600202","LM P/S","23.740745807037513","92.71455377340317","Completed"
"15030600204","SPRINGDALE SCHOOL","23.743593844033676","92.71695032715797","Completed"
"15030600205","NEW HORIZON SCHOOL","23.744006313194994","92.71826192736626","Completed"
"15030600206","CHANMARI WEST P/S ","23.743888464996463","92.71651580929756","Completed"
"15030600207","LODESTAR SCHOOL","23.74351773350998","92.71574333310127","Completed"
"15030600210","NEW HORIZON SCHOOL OF EDUCATION","23.74376079599441","92.71815061569214","Completed"
"15030600211","CHANMARI WEST HIGH SCHOOL","23.74218701974821","92.71507680416107","Completed"
"15030600212","SPRINGDALE SCHOOL","23.74359629921112","92.71710455417633","Completed"
"15030600213","NEW HORIZON SCHOOL OF EDUCATION HIGHER SECTION","23.743814809818243","92.7180889248848","Completed"
"15030600301","DINTHAR M/S I","23.72965505593543","92.71176293492317","Completed"
"15030600302","DINTHAR M/S II","23.730264003664697","92.71133914589882","Completed"
"15030600303","GARIGOAN P/S","23.729903055152395","92.71187290549278","Completed"
"15030600304","DINTHAR P/S I","23.72938004635095","92.71158322691917","Completed"
"15030600305","DINTHAR P/S II","23.733905353492286","92.71347686648369","Completed"
"15030600306","HERMON SCHOOL","23.731636581056012","92.71136730909348","Completed"
"15030600307","MT.CARETH SCHOOL","23.7307820980814","92.71153897047043","Completed"
"15030600310","DINTHAR GOVT. HIGH SCHOOL","23.72956420461902","92.7117133140564","Completed"
"15030600311","HERMON SCHOOL","23.731624304041457","92.71136462688446","Completed"
"15030600401","DAWRPUI VENGTHR M/S","23.734381692471633","92.71439284086227","Completed"
"15030600402","DAWRPUI VENGTHAR P/S","23.736871394677706","92.71336555480957","Completed"
"15030600403","GABRIEL MEMORIAL SCHOOL","23.735921188502218","92.71361634135246","Completed"
"15030600404","PRESBY. ENG. SCHOOL","23.73766691079769","92.7139100432396","Completed"
"15030600406","LIVING STONE","23.73452410275623","92.71487563848495","Completed"
"15030600410","K.M. GOVT. HIGH SCHOOL","23.73601694602768","92.71196007728577","Completed"
"15030600411","K.M. GOVT HIGHER SECONDARY SCHOOL","23.73616672047766","92.7115872502327","Completed"
"15030600501","HUNTHAR M/S ","23.744327940027524","92.71248176693916","Completed"
"15030600502","HUNTHAR P/S","23.744126616454334","92.71268293261528","Completed"
"15030600504","LITTLE LIGHT SCHOOL","23.740593582617482","92.71385103464127","Completed"
"15030600601","EDENTHAR M/S","23.7548135217427","92.71808356046677","Completed"
"15030600602","EDENTHAR P/S","23.75582005388629","92.71732583642006","Completed"
"15030600605","KIDS\' PARADISE SCHOOL","23.751818428846704","92.7177844941616","Completed"
"15030600701","TBL M/S","23.722389","92.716488","Completed"
"15030600702","KHATLA P/S I","23.720604","92.717040","Completed"
"15030600703","KHATLA NEPALI P/S","23.718988187622607","92.7181439101696","Completed"
"15030600704","KHATLA NEPALI M/S","23.719162538019596","92.71812245249748","Completed"
"15030600705","LALMALSAWMA MEMORIAL SCHOOL","23.722119","92.716961","Completed"
"15030600706","GRACELAND SCHOOL","23.719750","92.715551","Completed"
"15030600710","ALMA HIGHER SECONDARY SCHOOL","23.71970768846115","92.71471738815308","Completed"
"15030600711","LR HIGHER SECONDARY SCHOOL HSS SECTION","23.72067029088304","92.71625429391861","Completed"
"15030600712","GORKHA GOVT. HIGH SCHOOL","23.718882595015327","92.71805942058563","Completed"
"15030600713","JL GOVERNMENT HIGH SCHOOL","23.722020869036132","92.71652787923813","Completed"
"15030600714","JL GOVT. HIGHER SECONDARY SCHOOL","23.721942290326943","92.71652787923813","Completed"
"15030600715","ALMA HIGHER SECONDARY SCHOOL (H/S SECTION)","23.719611918954016","92.71467983722687","Completed"
"15030600717","SAVIOUR HIGH SCHOOL","23.72106809899241","92.71704822778702","Completed"
"15030600718","CHRIST KING HIGHER SECONDARY SCHOOL","23.722092080950578","92.71751761436462","Completed"
"15030600719","LR HIGHER SECONDARY SCHOOL HS SECTION","23.720739047926934","92.71623820066452","Completed"
"15030600801","THANBUKA M/S","23.719263","92.716299","Completed"
"15030600802","KHATLA P/S II","23.717203","92.716345","Completed"
"15030600803","NEW ATLANTIS SCHOOL","23.71723239246238","92.71082282066345","Completed"
"15030600901","KULIKAWN M/S","23.707610706484374","92.71524041891098","Completed"
"15030600902","KULIKAWN P/S","23.70777279282911","92.71550863981247","Completed"
"15030600903","GEROGE MEMORIAL SCHOOL","23.710746795926568","92.72032052278519","Completed"
"15030600906","KULIKAWN GOVT. HIGH SCHOOL","23.707330738687364","92.71548449993134","Completed"
"15030601001","LUNGLENG I M/S","23.662272660080212","92.66587972640991","Completed"
"15030601002","LUNGLENG I P/S","23.662115430684707","92.66471028327942","Completed"
"15030601003","LUNGLENG I ENG. MEDIUM SCHOOL","23.661742010112683","92.66895353794098","Completed"
"15030601010","LUNGLENG GOVT. HIGH SCHOOL","23.663660692635446","92.66208976507187","Completed"
"15030601101","MELTHUM M/S","23.686822692403453","92.72135853767395","Completed"
"15030601102","MELTHUM P/S","23.691316","92.718453","Completed"
"15030601103","F.THANGMAWIA MEMORIAL SCHOOL","23.69105228012397","92.7198189496994","Completed"
"15030601201","MISSION VENGTHLNAG M/S","23.71290051141699","92.7134969830513","Completed"
"15030601202","MISSION VENGTHLANG P/S","23.713082237209036","92.71371692419052","Completed"
"15030601203","VANA MEMORIAL SCHOOL","23.714737","92.713979","Completed"
"15030601207","SYNOD HIGHER SECONDARY SCHOOL","23.712060640278434","92.71329581737518","Completed"
"15030601208","SYNOD HIGH SCHOOL","23.711768403146344","92.71353989839554","Completed"
"15030601209","LIVING WATER SCHOOL","23.713155909755297","92.70962119102478","Completed"
"15030601301","BOYS M/S","23.71747427613666","92.71883592009544","Completed"
"15030601302","BOYS P/S","23.71773334901611","92.7183786034584","Completed"
"15030601303","MODEL COMP. P/S","23.712573","92.718090","Completed"
"15030601304","MODEL COMP. M/S","23.71252634051703","92.7180953644181","Completed"
"15030601305","TINY TOTS SCHOOL","23.720369","92.718095","Completed"
"15030601307","MHIP SCHOOL","23.713878","92.717889","Completed"
"15030601309","GOSPEL CENTENARY SCHOOL","23.713862","92.719186","Completed"
"15030601313","ENGLISH CONGREGATION SCHOOL","23.715280","92.719066","Completed"
"15030601314","PC GIRLS SCHOOL","23.716466219893434","92.71766647696495","Completed"
"15030601315","PC GIRLS P/S","23.716382726456903","92.71788105368614","Completed"
"15030601322","GOODWILL FOUNDATION SCHOOL","23.718185190531635","92.71783411502838","Completed"
"15030601325","MAMAWII GOVT. HIGH SCHOOL","23.712915245950107","92.71892040967941","Completed"
"15030601326","CHRIST KING SCHOOL","23.722025780203936","92.7175310254097","Completed"
"15030601327","COMPREHENSIVE GOVT MODEL HIGH SCHOOL","23.712772812060297","92.71811038255692","Completed"
"15030601328","MAMAWII GOVT. HIGHER SECONDARY SCHOOL","23.71268931625947","92.71899819374084","Completed"
"15030601329","HIGHLANDER HIGHER SECONDARY SCHOOL","23.720520498626037","92.71764099597931","Completed"
"15030601330","OIKOS HIGHER SECONDARY SCHOOL","23.720031830886548","92.7182874083519","Completed"
"15030601331","P.G HIGH SCHOOL","23.719413012829765","92.71829009056091","Completed"
"15030601332","TINY TOTS SCHOOL, HS SECTION","23.719221473312295","92.71959364414215","Completed"
"15030601333","HIGHLANDER HIGHER SECONDARY SCHOOL (HIGH SCHOOL SEC.)","23.720503309339644","92.71768122911453","Completed"
"15030601334","TINY TOTS HIGHER SECONDARY SCHOOL","23.71920673949165","92.71969556808472","Completed"
"15030601335","OIKOS ENGLISH SCHOOL","23.720098","92.718306","Completed"
"15030601336","GOODWILL FOUNDATION SCHOOL P/S & M/S","23.718076","92.717950","Completed"
"15030601337","MHIP SCHOOL P/S","23.713878","92.717889","Completed"
"15030601338","BOSTON HSS","23.71509348278447","92.71886140108109","Completed"
"15030601401","N LUNGLENG M/S","23.661766577288347","92.67062723636627","Completed"
"15030601402","N LUNGLENG P/S","23.659992815341578","92.67166256904602","Completed"
"15030601501","SAIKHAMAKAWN M/S","23.693420","92.716816","Completed"
"15030601502","SAIKHAMAKAWN P/S","23.693391","92.718228","Completed"
"15030601503","CANDID ENGLISH SCHOOL","23.69370982555439","92.71822571754456","Completed"
"15030601601","SAMTLANG M/S I","23.66015496078463","92.70843029022217","Completed"
"15030601602","SAMTLANG P/S","23.66040063531527","92.7087414264679","Completed"
"15030601608","SAMTLANG HIGH SCHOOL","23.656656505388803","92.70167112350464","Completed"
"15030601701","HLIMEN M/S I","23.68704621062992","92.71948367357254","Completed"
"15030601702","HLIMEN M/S II","23.685970372139383","92.71785825490952","Completed"
"15030601703","HLIMEN P/S I","23.686066166336985","92.71777510643005","Completed"
"15030601704","HLIMEN P/S II","23.686532855012693","92.71994769573212","Completed"
"15030601705","HLIMEN P/S III","23.679240039839105","92.71544963121414","Completed"
"15030601706","PRESBY. ENG. SCHOOL","23.684248520863225","92.71452963352203","Completed"
"15030601709","HLIMEN GOVERNMENT HIGH SCHOOL","23.6849927760545","92.71930664777756","Completed"
"15030601801","VZBM M/S","23.705582154292703","92.7054101228714","Completed"
"15030601802","TLANGNUAM P/S I","23.705385682671672","92.71602094173431","Completed"
"15030601803","TLANGNUAM P/S II","23.704894502324912","92.71516263484955","Completed"
"15030601804","TLANGNUAM P/S III","23.703917047934528","92.70491927862167","Completed"
"15030601805","MARY MOUNT SCHOOL","23.707237415954868","92.71746933460236","Completed"
"15030601808","ST. PAULS HIGHER SECONDARY SCHOOL","23.70590878770797","92.71681219339371","Completed"
"15030601809","ST. PAULS HIGHER SECONDARY SCHOOL (H/S SECTION)","23.705631272151745","92.71669283509254","Completed"
"15030601810","MARY MOUNT SCHOOL M/S","23.707281621468056","92.71762490272522","Completed"
"15030601901","TUIKUAL NORTH M/S","23.729645234174505","92.71505266427994","Completed"
"15030601902","TUIKUAL P/S I","23.729966896458667","92.7162703871727","Completed"
"15030601903","TUIKUAL P/S II","23.7296329569724","92.71324351429939","Completed"
"15030601904","MORIAH ENG. SCHOOL","23.731098846734078","92.71525382995605","Completed"
"15030601905","PRESBY. ENG. SCHOOL","23.72917133333258","92.71637231111526","Completed"
"15030601908","R.M. GOVT. HIGH SCHOOL","23.72929410573681","92.71310806274414","Completed"
"15030601909","OASIS SCHOOL ( HIGH SCHOOL )","23.72479073828096","92.7174961566925","Completed"
"15030601910","OASIS SCHOOL ( H.S.S.)","23.724844759968445","92.71748542785645","Completed"
"15030602001","TUIKUAL SOUTH M/S","23.72786993873832","92.71557167172432","Completed"
"15030602002","TUIKUAL P/S III","23.724928247986853","92.71574467420578","Completed"
"15030602003","NORTH POINT SCHOOL","23.727265890794666","92.7169731259346","Completed"
"15030602007","PINE MOUNT HIGHER SECONDARY SCHOOL","23.728724440804655","92.71682024002075","Completed"
"15030602008","TUIKUAL SOUTH HIGH SCHOOL","23.727823284728604","92.71554619073868","Completed"
"15030602009","PINE MOUNT HIGHER SECONDARY SCHOOL (H/S SECTION)","23.72874408446446","92.71687388420105","Completed"
"15030602101","ZOHNUAI P/S","23.742405532719452","92.70571321249008","Completed"
"15030602102","VAIVAKAWN M/S","23.738742323016343","92.7128478884697","Completed"
"15030602103","LITTLE DIAMOND ACADEMY","23.738452600963438","92.70985454320908","Completed"
"15030602104","NEW AGE SCHOOL","23.738570454079643","92.711730748415","Completed"
"15030602106","CHHINLUNG ACADEMY","23.73719549442402","92.71234229207039","Completed"
"15030602107","ST. SALVIUS SCHOOL","23.73856799880748","92.710290402174","Completed"
"15030602108","CHHINLUNG ACADEMY M/S","23.737224957997334","92.71243616938591","Completed"
"15030602111","ST SALVIUS SCHOOL","23.7387153150556","92.71099984645844","Completed"
"15030602112","NEW AGE ACADEMY","23.738577819895863","92.71156847476959","Completed"
"15030602113","HELEN LOWRY HIGHER SECONDARY SCHOOL","23.73789770777535","92.70918130874634","Completed"
"15030602114","VAIVAKAWN HIGH SCHOOL","23.738727591402085","92.71305978298187","Completed"
"15030602115","HELEN LOWRY HIGHER SECONDARY SCHOOL (H/S SECTION)","23.73780931749177","92.70945489406586","Completed"
"15030602116","ST SALVIUS SCHOOL ( H.S.S )","23.738587640983503","92.71032392978668","Completed"
"15030700101","AIBAWK P/S - I","23.559163363167446","92.70715892314911","Completed"
"15030700103","AIBAWK M/S ","23.554858212085144","92.70513653755188","Completed"
"15030700104","PRES. ENGLISH SCHOOL","23.558243828179616","92.70544767379761","Completed"
"15030700106","PRES. ENGLISH SCHOOL M/S","23.558297918651142","92.70545840263367","Completed"
"15030700110","AIBAWK HIGH SCHOOL","23.560899152317006","92.7062577009201","Completed"
"15030700201","CHAWILUNG P/S","23.454913418874003","92.8056210932541","Completed"
"15030700202","CHAWILUNG M/S","23.45443631522909","92.80605800000001","Completed"
"15030700301","CHAMRING P/S","23.427494","92.762368","Completed"
"15030700302","CHAMRING M/S","23.427483","92.762359","Completed"
"15030700401","FALKAWN P/S ","23.623502","92.724504","Completed"
"15030700402","FALKAWN M/S","23.622723","92.723978","Completed"
"15030700404","GOOD SAMARITAN ENGLISH SCHOOL","23.624920456317863","92.72629380226135","Completed"
"15030700407","FALKAWN GOVT.HIGH SCHOOL","23.623677001416432","92.72442698478699","Completed"
"15030700501","HMUIFANG P/S","23.448376","92.760558","Completed"
"15030700502","NEIHLAIA MEM. M/S","23.450660","92.757452","Completed"
"15030700503","MOUNT HERMON SCHOOL","23.443642611746426","92.76178747415543","Completed"
"15030700504","MOUNT HERMON M/S","23.44361554296983","92.76177942752838","Completed"
"15030700601","HUALNGOHMUN P/S","23.657327","92.726799","Completed"
"15030700602","HUALNGOHMUN M/S","23.653298","92.726927","Completed"
"15030700701","KELSIH P/S","23.636702","92.722317","Completed"
"15030700702","KELSIH M/S","23.638020","92.724929","Completed"
"15030700801","LAMCHHIP P/S","23.435537","92.779578","Completed"
"15030700802","LAMCHHIP M/S","23.435286","92.779822","Completed"
"15030700805","H.ROTLUANGA MEMORIAL HIGH SCHOOL","23.43441183748243","92.78227150440216","Completed"
"15030700901","LUNGSAI P/S","23.500452663554103","92.70141363143921","Completed"
"15030700902","LUNGSAI UPS","23.500460042768946","92.70140290260315","Completed"
"15030701001","LUNGSEI P/S","23.451450491862833","92.68192872405052","Completed"
"15030701002","LUNGSEI UPS","23.451502165548483","92.68193945288658","Completed"
"15030701101","MAUBUANG P/S","23.4955527736687","92.70705163478851","Completed"
"15030701102","MAUBUANG M/S","23.495909448508062","92.70685851573944","Completed"
"15030701201","MELRIAT P/S","23.650336","92.726334","Completed"
"15030701202","MELRIAT M/S","23.650430","92.726110","Completed"
"15030701203","MONFORT ENG. SCHOOL","23.651838","92.726678","Completed"
"15030701204","MONFORT ENG. SCHOOL P/S","23.651838","92.726678","Completed"
"15030701207","MELRIAT GOVT. HIGH SCHOOL","23.641315263461312","92.72423923015594\n","Completed"
"15030701301","MUALLUNGTHU P/S - I","23.616851","92.719448","Completed"
"15030701302","MUALLUNGTHU P/S - II","23.61045020376448","92.71935882209016","Completed"
"15030701303","MUALLUNGTHU M/S","23.616733","92.719060","Completed"
"15030701304","PRES. ENGLISH SCHOOL","23.61432859499169","92.71831154823303","Completed"
"15030701401","PHULPUI P/S - I","23.533541826154682","92.73686170578003","Completed"
"15030701403","PHULPUI M/S","23.530288","92.729002","Completed"
"15030701406","LALDENGA MEMORIAL HIGH SCHOOL","23.530290829006923","92.72899746894836","Completed"
"15030701501","SAILAM P/S ","23.349958881093336","92.79687479138374","Completed"
"15030701502","SAILAM M/S","23.348796557526104","92.7982346713543","Completed"
"15030701505","BENGKHUAIA HIGH SCHOOL","23.35224409774785","92.79516220092773","Completed"
"15030701601","SAMLUKHAI P/S - I","23.413265496687405","92.73329973220825","Completed"
"15030701602","SAMLUKHAI P/S - II","23.412394171304353","92.72838860750198","Completed"
"15030701603","SAMLUKHAI M/S","23.41260831112517","92.73289605975151","Completed"
"15030701606","SAMLUKHAI GOVT. HIGH SCHOOL","23.412103728234978","92.73040294647217","Completed"
"15030701701","SATEEK P/S","23.542748450209473","92.70403683185577","Completed"
"15030701702","SATEEK M/S","23.543997589930555","92.70443916320801","Completed"
"15030701703","ST FRANSIS DE SALES SCHOOL","23.53494351723506","92.6991605758667","Completed"
"15030701706","SATEEK GOVT. HIGH SCHOOL","23.551113525676286","92.70528674125671","Completed"
"15030701801","SIALSUK P/S - I","23.395749278318462","92.74956464767456","Completed"
"15030701802","SIALSUK P/S - II","23.397551222225463","92.74789899587631","Completed"
"15030701803","SIALSUK P/S - III","23.396263770268288","92.75423035025597","Completed"
"15030701805","SIALSUK M/S - I","23.395892056189126","92.74826377630234","Completed"
"15030701806","SIALSUK M/S - II","23.397654611705832","92.74766832590103","Completed"
"15030701807","PRES. ENGLISH SCHOOL","23.398402952204613","92.74941444396973","Completed"
"15030701808","PRES ENGLISH M/S","23.398402952204613","92.74941444396973","Completed"
"15030701811","SIALSUK GOVT. HIGH SCHOOL","23.39489753127107","92.74823427200317","Completed"
"15030701902","SUMSUIH P/S - II","23.470780","92.744004","Completed"
"15030701903","SUMSUIH M/S","23.470951","92.743691","Completed"
"15030701905","SUMSUIH P/S - I","23.478256","92.747710","Completed"
"15030701908","SUMSUIH GOVT. HIGH SCHOOL","23.474977151709684","92.74614214897156","Completed"
"15030702001","TACHHIP P/S ","23.584615208315657","92.71667003631592","Completed"
"15030702002","SEVENPHUL P/S","23.576515305967483","92.71269500255585","Completed"
"15030702003","TACHHIP M/S","23.580173229677275","92.71478176116943","Completed"
"15030702006","TACHHIP HIGH SCHOOL","23.577946038264393","92.71218001842499","Completed"
"15030702101","THIAK P/S - I","23.47015012420991","92.71432310342789","Completed"
"15030702103","THIAK M/S","23.471527887070348","92.7132260799408","Completed"
"15030702104","THIAK P/S - II","23.47015012420991","92.71432310342789","Completed"
"15030702107","AWITHANGPA GOVT. HIGH SCHOOL","23.47252675614861","92.71310269832611","Completed"
"15030800102","HOLY MISSION","23.720046564614016","92.71394491195679","Completed"
"15030800103","ROYAL STANDARD","23.72154694047744","92.7054825425148","Completed"
"15030800104","SS MEMORIAL","23.719913961006913","92.70981431007385","Completed"
"15030800105","SUMMER DALE","23.720464019533697","92.71072089672089","Completed"
"15030800108","BUNGKAWN GOVT. HIGH SCHOOL","23.719405645930493","92.70774498581886","Completed"
"15030800109","HOLYLAND ACADEMY","23.720994430915567","92.70709991455078","Completed"
"15030800201","BUNGKAWN P/S II","23.72236465033245","92.70844772458076","Completed"
"15030800202","BUNGKAWN M/S II","23.722308172038865","92.70830690860748","Completed"
"15030800301","BUNGKAWN P/S I","23.7180894199064","92.70955815911293","Completed"
"15030800302","NURSERY VENGTHLANG P/S","23.71671178851463","92.7084530889988","Completed"
"15030800303","BUNGKAWN M/S I","23.71823430364555","92.70864889025688","Completed"
"15030800401","CHAWLHHMUN P/S","23.746117742015787","92.69143581390381","Completed"
"15030800402","CHAWLHHMUN M/S","23.746132472794297","92.69143044948578","Completed"
"15030800403","ST. JAMES ENG. SCHOOL","23.747929615271513","92.69009068608284","Completed"
"15030800407","CHAWLHHMUN HIGH SCHOOL","23.74427147125181","92.68679022789001","Completed"
"15030800408","ST. JAMES SCHOOL","23.748641591088106","92.68925786018372","Completed"
"15030800501","TUIVAMIT P/S","23.745064487033755","92.68297478556633","Completed"
"15030800502","TUIVAMIT UPS","23.744998197973757","92.68298283219337","Completed"
"15030800601","CENTRAL JAIL P/S","23.749162067497977","92.6763953268528","Completed"
"15030800602","CENTRAL JAIL M/S","23.74912278633207","92.6764489710331","Completed"
"15030800701","CHAWNPUI P/S","23.73372365672182","92.70484417676926","Completed"
"15030800702","CHAWNPUI MODEL M/S","23.737173396739646","92.70610213279724","Completed"
"15030800703","HELEN LOWRY SCHOOL","23.73773320358844","92.70873874425888","Completed"
"15030800705","PENIEL SCHOOL","23.735962928970697","92.70457863807678","Completed"
"15030800706","WEST END P/S","23.735408025179634","92.7063824236393","Completed"
"15030800707","WEST END M/S","23.73523124117464","92.70637169480324","Completed"
"15030800710","CHAWNPUI GOVT. HIGH SCHOOL","23.735555345000584","92.70464837551117","Completed"
"15030800801","GOVT.COMPLEX P/S","23.73193859525015","92.69422262907028","Completed"
"15030800802","GOVT.COMPLEX M/S","23.728807926338348","92.69496291875839","Completed"
"15030800804","ELKTON HILL","23.728496083042305","92.69555702805519","Completed"
"15030800901","KANAN P/S","23.733301333519844","92.70990282297134","Completed"
"15030800902","KANAN M/S","23.733325887231853","92.71014019846916","Completed"
"15030800903","YOUNG LEANER SCHOOL","23.7371783073365","92.71130427718163","Completed"
